facility_code,facility_name,lat,lng,timestamp,power_value,emission_value,price_per_mwh,demand_mw,state,fuel_list
CANUNDA1,Canunda,-37.698303,140.383633,2025-10-24T13:15:00,3.6042,0.0,137.316,20951.32,SA,['Wind']
CAPBES,Capital,-35.339434,149.216065,2025-10-24T13:15:00,78.8,0.0,137.316,20951.32,NSW,"['Solar', 'Wind', 'Solar', 'Solar']"
CAPTL_WF,Capital,-35.123534,149.500249,2025-10-24T13:15:00,0.0,0.0,137.316,20951.32,NSW,"['Solar', 'Wind', 'Solar', 'Solar']"
CATHROCK,Cathedral Rocks,-34.848741,135.592649,2025-10-24T13:15:00,37.8,0.0,137.316,20951.32,SA,['Wind']
CETHANA,Cethana,-41.479852,146.134472,2025-10-24T13:15:00,92.7957,0.0,137.316,20951.32,TAS,['Hydro']
CHALLWF,Challicum Hills,-37.395466,143.10459,2025-10-24T13:15:00,4.5,0.0,137.316,20951.32,VIC,['Wind']
CHBESS,Chinchilla,-26.918551,150.745399,2025-10-24T13:15:00,0.0,0.0,137.316,20951.32,QLD,['Battery']
CHILDSF,Childers,-25.295027,152.403674,2025-10-24T13:15:00,0.0,0.0,137.316,20951.32,QLD,['Solar']
CHYTWF,Cherry Tree,-37.1018,145.2656,2025-10-24T13:15:00,0.0,0.0,137.316,20951.32,VIC,['Wind']
CLARESF,Clare,-19.83977,147.21055,2025-10-24T13:15:00,0.0,0.0,137.316,20951.32,QLD,"['Solar', 'Solar']"
CLEMGPWF,Clements Gap,-33.489773,138.111695,2025-10-24T13:15:00,8.212,0.0,137.316,20951.32,SA,['Wind']
CLERMSF,Clermont,-22.839406,147.546031,2025-10-24T13:15:00,0.0,0.0,137.316,20951.32,QLD,['Solar']
CLOVER,Clover,-36.78515,147.219517,2025-10-24T13:15:00,0.0,0.0,137.316,20951.32,VIC,['Hydro']
CLRKCWF,Clarke Creek,-22.850446,149.453252,2025-10-24T13:15:00,274.0948,0.0,137.316,20951.32,QLD,"['Wind', 'Wind']"
CLUNY,Cluny,-42.506229,146.681123,2025-10-24T13:15:00,17.8068,0.0,137.316,20951.32,TAS,['Hydro']
COHUNSF1,Cohuna,-35.880317,144.221531,2025-10-24T13:15:00,0.0,0.0,137.316,20951.32,VIC,['Solar']
COLONGRA,Colongra,-33.208781,151.54354,2025-10-24T13:15:00,0.0,0.0,137.316,20951.32,NSW,['Gas']
COLUMSF,Columboola,-26.636088,150.28221,2025-10-24T13:15:00,0.0,0.0,137.316,20951.32,QLD,['Solar']
COLWF01,Collector,-34.823879,149.396795,2025-10-24T13:15:00,5.8656,0.0,137.316,20951.32,NSW,"['Solar', 'Wind']"
CONDONG1,Condong,-28.314766,153.433808,2025-10-24T13:15:00,23.07,0.0712,137.316,20951.32,NSW,"['Bagasse', 'Wood']"
COOPGWF,Coopers Gap,-26.717004,151.449177,2025-10-24T13:15:00,312.7,0.0,137.316,20951.32,QLD,['Wind']
CROOKWF2,Crookwell 2,-34.547676,149.589254,2025-10-24T13:15:00,0.0,0.0,137.316,20951.32,NSW,['Wind']
CROOKWF3,Crookwell 3,-34.484645,149.54447,2025-10-24T13:15:00,0.0,0.0,137.316,20951.32,NSW,['Wind']
CROWLWF,Crowlands,-36.97615,143.097998,2025-10-24T13:15:00,3.5041,0.0,137.316,20951.32,VIC,['Wind']
CRURWF1,Crudine Ridge,-32.864748,149.81297,2025-10-24T13:15:00,0.7987000000000001,0.0,137.316,20951.32,NSW,['Wind']
CRWASF1,Corowa,-35.98629,146.361456,2025-10-24T13:15:00,0.0,0.0,137.316,20951.32,NSW,['Solar']
CSPVPS,Collinsville,-20.55714,147.820552,2025-10-24T13:15:00,0.0,0.0,137.316,20951.32,QLD,['Solar']
CTHLWF,Cattle Hill,-42.154845,146.694693,2025-10-24T13:15:00,113.2433,0.0,137.316,20951.32,TAS,['Wind']
CULLERIN,Cullerin Range,-34.750995,149.381027,2025-10-24T13:15:00,1.93,0.0,137.316,20951.32,NSW,['Wind']
DARLSF,Darlington Point,-34.644808,146.035756,2025-10-24T13:15:00,0.0,0.0,137.316,20951.32,NSW,['Solar']
DARTM,Dartmouth,-36.55529,147.519872,2025-10-24T13:15:00,0.0,0.0,137.316,20951.32,VIC,['Hydro']
DDPS1,Darling Downs,-27.116851,150.895391,2025-10-24T13:15:00,477.4402,19.8026,137.316,20951.32,QLD,"['Gas', 'Solar', 'Wind']"
DDSF,Darling Downs,-27.112,150.8819,2025-10-24T13:15:00,0.0,0.0,137.316,20951.32,QLD,"['Gas', 'Solar', 'Wind']"
DEIBDL,Bairnsdale,-37.842231,147.563725,2025-10-24T13:15:00,0.0,0.0,137.316,20951.32,VIC,['Gas']
DRYCGT,Dry Creek,-34.847293,138.582297,2025-10-24T13:15:00,0.0,0.0,137.316,20951.32,SA,"['Gas', 'Solar']"
DULAWF,Dulacca,-26.637485,149.870186,2025-10-24T13:15:00,169.8,0.0,137.316,20951.32,QLD,['Wind']
DUNDWF,Dundonnell,-37.863894,142.943454,2025-10-24T13:15:00,9.69,0.0,137.316,20951.32,VIC,['Wind']
EILDON,Eildon,-37.221262,145.920966,2025-10-24T13:15:00,93.28,0.0,137.316,20951.32,VIC,['Hydro']
EMERASF,Emerald,-23.50879,148.128017,2025-10-24T13:15:00,0.0,0.0,137.316,20951.32,QLD,"['Solar', 'Wind']"
ERARING,Eraring,-33.061548,151.524612,2025-10-24T13:15:00,1966.9978,145.945,137.316,20951.32,NSW,"['Black Coal', 'Battery']"
ERB,Eraring,-33.066837,151.515026,2025-10-24T13:15:00,0.0,0.0,137.316,20951.32,NSW,"['Black Coal', 'Battery']"
ERGT01,Eraring,-33.062117,151.517224,2025-10-24T13:15:00,0.0,0.0,137.316,20951.32,NSW,"['Black Coal', 'Battery']"
FINLEYSF,Finley,-35.64421,145.508644,2025-10-24T13:15:00,0.0,0.0,137.316,20951.32,NSW,['Solar']
FISHER,Fisher,-41.672662,146.268739,2025-10-24T13:15:00,42.7,0.0,137.316,20951.32,TAS,['Hydro']
GANGARR,Gangarri,-26.254813,149.986704,2025-10-24T13:15:00,0.0,0.0,137.316,20951.32,QLD,['Solar']
GANNSF,Gannawarra,-35.73,143.7711,2025-10-24T13:15:00,0.0,0.0,137.316,20951.32,VIC,['Solar']
GERMCRK,German Creek,-22.928526,148.549097,2025-10-24T13:15:00,16.998,0.8146,137.316,20951.32,QLD,['Waste Coal Mine Gas']
GIRGSF,Girgarre,-26.2548,149.9867,2025-10-24T13:15:00,0.0,0.0,137.316,20951.32,VIC,['Solar']
GLENSF,Glenrowan,-36.464,146.221,2025-10-24T13:15:00,0.0,0.0,137.316,20951.32,VIC,['Solar']
GLRWNSF,Glenrowan West,-36.488083,146.146887,2025-10-24T13:15:00,0.0,0.0,137.316,20951.32,VIC,['Solar']
GNNDHSF,Gunnedah,-30.965469,150.367917,2025-10-24T13:15:00,0.0,0.0,137.316,20951.32,NSW,"['Solar', 'Solar']"
GOONUMSF,Goonumbla,-33.106413,148.099274,2025-10-24T13:15:00,0.0,0.0,137.316,20951.32,NSW,['Solar']
GORDON,Gordon,-42.740157,145.983375,2025-10-24T13:15:00,23.2145,0.0,137.316,20951.32,TAS,['Hydro']
GRANWF,Granville Harbour,-41.802,145.056,2025-10-24T13:15:00,16.92,0.0,137.316,20951.32,TAS,['Wind']
GSTONE,Gladstone,-23.848741,151.220787,2025-10-24T13:15:00,1039.8691,81.9635,137.316,20951.32,QLD,['Black Coal']
GULLRGWF,Gullen Range,-34.624512,149.458549,2025-10-24T13:15:00,0.0,0.0,137.316,20951.32,NSW,['Wind']
GUNNING,Gunning,-34.676361,149.66443,2025-10-24T13:15:00,0.0,0.0,137.316,20951.32,NSW,['Wind']
HAMISF,Hamilton,-20.468593,147.799484,2025-10-24T13:15:00,0.0,0.0,137.316,20951.32,QLD,['Solar']
HAUGHT1,Haughton,-19.732168,147.076137,2025-10-24T13:15:00,0.0,0.0,137.316,20951.32,QLD,['Solar']
HAYMSF,Hayman,-20.487516,147.744778,2025-10-24T13:15:00,0.0,0.0,137.316,20951.32,QLD,['Solar']
HD1WF,Hawkesdale,-38.148008,142.360925,2025-10-24T13:15:00,0.68,0.0,137.316,20951.32,VIC,['Wind']
HILLSTN,Hillston Sun,-33.532991,145.522279,2025-10-24T13:15:00,0.0,0.0,137.316,20951.32,NSW,['Solar']
HUMENSW,Hume,-36.106383,147.032263,2025-10-24T13:15:00,20.0,0.0,137.316,20951.32,NSW,['Hydro']
HUMEV,Hume,-36.106887,147.032572,2025-10-24T13:15:00,0.0,0.0,137.316,20951.32,NSW,['Hydro']
HUNTER,Hunter,-32.793406,151.478353,2025-10-24T13:15:00,0.0,0.0,137.316,20951.32,NSW,['Gas']
JEMALNG1,Jemalong,-33.388764,147.669375,2025-10-24T13:15:00,0.0,0.0,137.316,20951.32,NSW,['Solar']
JUNEESF,Junee,-34.81124,147.572099,2025-10-24T13:15:00,0.0,0.0,137.316,20951.32,NSW,['Solar']
KAREEYA,Kareeya,-17.766456,145.576884,2025-10-24T13:15:00,85.7,0.0,137.316,20951.32,QLD,['Hydro']
KIAMSF1,Kiamal,-35.018133,142.302953,2025-10-24T13:15:00,0.0,0.0,137.316,20951.32,VIC,"['Solar', 'Solar']"
KIATAWF,Kiata,-36.397693,141.746827,2025-10-24T13:15:00,5.2,0.0,137.316,20951.32,VIC,['Wind']
KOGANCK,Kogan Creek,-26.915285,150.748948,2025-10-24T13:15:00,0.0,11.1824,137.316,20951.32,QLD,['Black Coal']
LADBROKE,Ladbroke Grove,-37.456183,140.782699,2025-10-24T13:15:00,42.09,2.6402,137.316,20951.32,SA,['Gas']
LBBESS,Lake Bonney,-37.738787,140.384672,2025-10-24T13:15:00,12.6,0.0,137.316,20951.32,SA,"['Wind', 'Battery']"
LGAPWF1,Lincoln Gap,-32.546333,137.552763,2025-10-24T13:15:00,58.37,0.0,137.316,20951.32,SA,['Wind']
LILYVASF,Lilyvale,-23.070504,148.413865,2025-10-24T13:15:00,0.0,0.0,137.316,20951.32,QLD,['Solar']
LIMBESS,Limondale,-34.769354,143.559464,2025-10-24T13:15:00,0.0,0.0,137.316,20951.32,NSW,['Solar']
LIMOSF1,Limondale,-34.775502,143.508046,2025-10-24T13:15:00,0.0,0.0,137.316,20951.32,NSW,['Solar']
LKBONNY1,Lake Bonney,-37.760504,140.405541,2025-10-24T13:15:00,5.7158,0.0,137.316,20951.32,SA,"['Wind', 'Battery']"
LNGS,Laverton North,-37.841693,144.788006,2025-10-24T13:15:00,0.0,0.0,137.316,20951.32,VIC,['Gas']
LONSDALE,Lonsdale,-35.109718,138.490962,2025-10-24T13:15:00,0.0,0.0,137.316,20951.32,SA,['Diesel']
LOYYB,Loy Yang B,-38.253619,146.585593,2025-10-24T13:15:00,580.125,54.116,137.316,20951.32,VIC,['Brown Coal']
LRSF,Longreach,-23.455048,144.227917,2025-10-24T13:15:00,0.0,0.0,137.316,20951.32,QLD,['Solar']
MACARTH,Macarthur,-38.043483,142.179081,2025-10-24T13:15:00,0.0,0.0,137.316,20951.32,VIC,['Wind']
MANSLR,Manildra,-33.172831,148.71824,2025-10-24T13:15:00,0.0,0.0,137.316,20951.32,NSW,['Solar']
MARYRSF,Maryrorough,-27.708973,151.546869,2025-10-24T13:15:00,0.0,0.0,137.316,20951.32,QLD,['Solar']
MBAHNTH,Moranbah North,-21.978481,148.004809,2025-10-24T13:15:00,22.4,1.4537,137.316,20951.32,QLD,['Waste Coal Mine Gas']
MEADOWBK,Meadowbank,-42.610835,146.846388,2025-10-24T13:15:00,43.756,0.0,137.316,20951.32,TAS,['Hydro']
MILLMERN,Millmerran,-27.961657,151.28091,2025-10-24T13:15:00,814.7704,55.8136,137.316,20951.32,QLD,['Black Coal']
MINTARO,Mintaro,-33.903149,138.738797,2025-10-24T13:15:00,0.0854,0.0061,137.316,20951.32,SA,['Gas']
MLWF,Mortons Lane,-37.833186,142.465288,2025-10-24T13:15:00,0.675,0.0,137.316,20951.32,ACT,['Wind']
MLWF,Mortons Lane,-37.833186,142.465288,2025-10-24T13:15:00,0.675,0.0,137.316,20951.32,VIC,['Wind']
MOLNGSF1,Molong,-33.082578,148.900073,2025-10-24T13:15:00,0.0,0.0,137.316,20951.32,NSW,['Solar']
MOORAWF1,Moorabool,-37.739433,144.171985,2025-10-24T13:15:00,0.0,0.0,137.316,20951.32,VIC,['Wind']
MOREESF,Moree,-29.572607,149.861266,2025-10-24T13:15:00,0.0,0.0,137.316,20951.32,NSW,['Solar']
MOREESF,Moree,-29.572607,149.861266,2025-10-24T13:15:00,0.0,0.0,137.316,20951.32,SA,['Solar']
MORTLK,Mortlake,-38.062628,142.66633,2025-10-24T13:15:00,269.0,18.6922,137.316,20951.32,VIC,"['Gas', 'Wind']"
MRTLSWF,Mortlake South,-38.147965,142.882246,2025-10-24T13:15:00,0.0,0.0,137.316,20951.32,VIC,['Wind']
MSTUART,Mt Stuart,-19.337156,146.851239,2025-10-24T13:15:00,0.0,0.0,137.316,20951.32,QLD,"['Kerosene', 'Diesel']"
MTGELWF,Mt Gellibrand,-38.257657,143.798651,2025-10-24T13:15:00,0.0,0.0,137.316,20951.32,VIC,['Wind']
MTMILLAR,Mt Millar,-33.619342,136.717568,2025-10-24T13:15:00,18.7,0.0,137.316,20951.32,SA,['Wind']
MURRAY,Murray,-36.245992,148.188552,2025-10-24T13:15:00,752.7001,0.0,137.316,20951.32,QLD,['Diesel']
MUSSELRO,Musselroe,-40.777105,148.006315,2025-10-24T13:15:00,149.5,0.0,137.316,20951.32,TAS,['Wind']
NPPPPS,Pelican Point,-34.764365,138.505399,2025-10-24T13:15:00,148.7213,5.0022,137.316,20951.32,SA,['Gas']
NUMURKSF,Numurkah,-36.159275,145.473891,2025-10-24T13:15:00,0.0,0.0,137.316,20951.32,VIC,"['Solar', 'Solar']"
OAKEY,Oakey,-27.418207,151.678887,2025-10-24T13:15:00,0.0,0.0,137.316,20951.32,NSW,['Solar']
OAKEY,Oakey,-27.418207,151.678887,2025-10-24T13:15:00,0.0,0.0,137.316,20951.32,QLD,"['Gas', 'Solar']"
OAKEY2SF,Oakey 2,-27.402454,151.642576,2025-10-24T13:15:00,0.0,0.0,137.316,20951.32,QLD,['Solar']
OAKLAND,Oaklands Hill,-37.679481,142.552995,2025-10-24T13:15:00,0.0,0.0,137.316,20951.32,VIC,['Wind']
OSBORNE,Osborne,-34.7977,138.508099,2025-10-24T13:15:00,183.48,6.3387,137.316,20951.32,SA,"['Gas', 'Solar']"
PALOONA,Paloona,-41.28268,146.24858,2025-10-24T13:15:00,29.19,0.0,137.316,20951.32,TAS,['Hydro']
PORTLCN,Port Lincoln,-34.700616,135.80453,2025-10-24T13:15:00,0.0,0.0,137.316,20951.32,SA,['Diesel']
PORTWF,Portland,-38.361417,141.38456,2025-10-24T13:15:00,3.7,0.0,137.316,20951.32,VIC,['Wind']
PTINA,Poatina,-41.805073,146.924365,2025-10-24T13:15:00,6.2167,0.0,137.316,20951.32,TAS,['Hydro']
QBYNB,Queanbeyan,-35.339311,149.215101,2025-10-24T13:15:00,0.0,0.0,137.316,20951.32,ACT,['Battery']
REECE,Reece,-41.723131,145.136468,2025-10-24T13:15:00,99.3078,0.0,137.316,20951.32,TAS,['Hydro']
REPULSE,Repulse,-42.507987,146.64717,2025-10-24T13:15:00,30.2123,0.0,137.316,20951.32,TAS,['Hydro']
ROMA,Roma,-26.576788,148.839485,2025-10-24T13:15:00,0.0,0.0,137.316,20951.32,QLD,['Gas']
ROWALLAN,Rowallan,-41.72957,146.218087,2025-10-24T13:15:00,0.0,0.0,137.316,20951.32,TAS,['Hydro']
ROYALLA,Royalla,-35.486052,149.141966,2025-10-24T13:15:00,0.0,0.0,137.316,20951.32,ACT,['Solar']
RUBICON,Rubicon,-37.292453,145.818202,2025-10-24T13:15:00,0.495,0.0,137.316,20951.32,VIC,['Hydro']
RUGBYR,Rugby Run,-21.940469,147.880877,2025-10-24T13:15:00,0.0,0.0,137.316,20951.32,QLD,['Solar']
SALTCRK,Salt Creek,-37.918698,142.796027,2025-10-24T13:15:00,0.66,0.0,137.316,20951.32,VIC,['Wind']
SAPHWF1,Sapphire,-29.710273,151.44558,2025-10-24T13:15:00,0.0,0.0,137.316,20951.32,NSW,"['Wind', 'Solar']"
SEBSF,Sebastopol,-34.603287,147.554757,2025-10-24T13:15:00,0.0,0.0,137.316,20951.32,NSW,['Solar']
SMTHBES1,Smithfield,-33.849972,150.947448,2025-10-24T13:15:00,0.0,0.0,137.316,20951.32,NSW,['Gas']
SNOWSTH,Snowtown South,-33.862624,138.130367,2025-10-24T13:15:00,29.4,0.0,137.316,20951.32,SA,['Wind']
SNOWTOWN,Snowtown,-33.691598,138.166022,2025-10-24T13:15:00,15.6817,0.0,137.316,20951.32,SA,"['Wind', 'Solar']"
SNUG,Snuggery,-37.664996,140.414686,2025-10-24T13:15:00,0.0,0.0,137.316,20951.32,SA,['Diesel']
SRSF,Susan River,-25.420275,152.742028,2025-10-24T13:15:00,0.0,0.0,137.316,20951.32,QLD,['Solar']
STANVAC,Port Stanvac,-35.110345,138.490872,2025-10-24T13:15:00,0.0,0.0,137.316,20951.32,SA,['Diesel']
STANWELL,Stanwell,-23.507501,150.317884,2025-10-24T13:15:00,1121.5062,91.3872,137.316,20951.32,QLD,['Black Coal']
STARFHILL,Starfish Hill,-35.578983,138.139653,2025-10-24T13:15:00,6.4981,0.0,137.316,20951.32,SA,['Wind']
STWF,Silverton,-31.86095,141.296349,2025-10-24T13:15:00,21.0776,0.0,137.316,20951.32,NSW,['Wind']
SUNRSF1,Sunraysia,-34.821489,143.50916,2025-10-24T13:15:00,0.0,0.0,137.316,20951.32,NSW,['Solar']
SUNTPSF,Suntop,-32.5742,148.860469,2025-10-24T13:15:00,0.0,0.0,137.316,20951.32,NSW,['Solar']
SWAN_E,Swanbank E,-27.655286,152.818644,2025-10-24T13:15:00,121.4375,7.7823,137.316,20951.32,QLD,['Gas']
TALLAWAR,Tallawarra,-34.523089,150.808566,2025-10-24T13:15:00,0.0,0.0,137.316,20951.32,NSW,['Gas']
TARALGA,Taralga,-34.425387,149.859603,2025-10-24T13:15:00,0.0,0.0,137.316,20951.32,NSW,['Wind']
TARONG,Tarong,-26.774397,151.917838,2025-10-24T13:15:00,920.1,69.5066,137.316,20951.32,QLD,['Black Coal']
TB2SF,Tailem Bend 2,-35.28,139.49,2025-10-24T13:15:00,20.3384,0.0,137.316,20951.32,SA,['Solar']
TBSF,Tailem Bend,-35.28,139.49,2025-10-24T13:15:00,0.0,0.0,137.316,20951.32,SA,['Solar']
TIB,Torrens Island,-34.805831,138.524192,2025-10-24T13:15:00,0.22,0.0,137.316,20951.32,SA,"['Gas/Diesel', 'Gas']"
TORRIS,Torrens Island,-34.804559,138.522229,2025-10-24T13:15:00,336.0,17.1301,137.316,20951.32,SA,"['Gas/Diesel', 'Gas']"
TREVALLN,Trevallyn,-41.422302,147.112025,2025-10-24T13:15:00,95.0252,0.0,137.316,20951.32,TAS,['Hydro']
TUNGATIN,Tungatinah,-42.296396,146.455881,2025-10-24T13:15:00,96.49,0.0,137.316,20951.32,TAS,['Hydro']
TVCCPS,Tamar Valley,-41.139268,146.906185,2025-10-24T13:15:00,0.0,0.0,137.316,20951.32,TAS,['Gas']
URANQ,Uranquinty,-35.180226,147.21566,2025-10-24T13:15:00,150.3105,7.0529,137.316,20951.32,NSW,['Gas']
WAGGNSF,Wagga North,-35.069081,147.438227,2025-10-24T13:15:00,0.0,0.0,137.316,20951.32,NSW,['Solar']
WANDSF,Wandoan,-26.263564,149.772243,2025-10-24T13:15:00,0.0,0.0,137.316,20951.32,QLD,"['Solar', 'Solar']"
WARWSF,Warwick,-28.18321,152.066792,2025-10-24T13:15:00,0.0,0.0,137.316,20951.32,QLD,['Solar']
WATERLWF,Waterloo,-33.991095,138.915723,2025-10-24T13:15:00,12.2,0.0,137.316,20951.32,SA,"['Wind', 'Solar']"
WAUBRAWF,Waubra,-37.357979,143.5926,2025-10-24T13:15:00,1.5253,0.0,137.316,20951.32,VIC,['Wind']
WELLSF1,Wellington,-32.5207,148.9675,2025-10-24T13:15:00,0.0,0.0,137.316,20951.32,NSW,['Solar']
WEMENSF1,Wemen,-34.80259,142.543348,2025-10-24T13:15:00,0.0,0.0,137.316,20951.32,VIC,['Solar']
WGWF,Willogoleche,-33.393569,138.84821,2025-10-24T13:15:00,0.0,0.0,137.316,20951.32,SA,['Wind']
WHITSF,Whitsunday,-20.537259,147.80475,2025-10-24T13:15:00,0.0,0.0,137.316,20951.32,QLD,['Solar']
WINTSF1,Winton,-36.499695,146.114554,2025-10-24T13:15:00,0.0,0.0,137.316,20951.32,VIC,"['Solar', 'Solar']"
WIVENHOE,Wivenhoe,-27.372224,152.632362,2025-10-24T13:15:00,0.0,0.0,137.316,20951.32,QLD,['Hydro']
WOOLGSF,Woolooga,-26.084522,152.441226,2025-10-24T13:15:00,0.0,0.0,137.316,20951.32,QLD,['Solar']
WOOLNTH1,Woolnorth,-40.736375,144.694821,2025-10-24T13:15:00,75.58,0.0,137.316,20951.32,TAS,['Wind']
WPWF,Wattle Point,-35.11541,137.718672,2025-10-24T13:15:00,16.91,0.0,137.316,20951.32,SA,['Wind']
WRSF1,White Rock Solar Farm,-29.763292,151.552402,2025-10-24T13:15:00,0.0,0.0,137.316,20951.32,NSW,['Solar']
WRWF1,White Rock Wind Farm,-29.7718,151.5755,2025-10-24T13:15:00,0.6073000000000001,0.0,137.316,20951.32,NSW,['Wind']
WSTWYSF,West Wyalong,-33.795635,147.314545,2025-10-24T13:15:00,0.0,0.0,137.316,20951.32,NSW,['Solar']
WUNUSF,Wunghnu,-36.164387,145.403731,2025-10-24T13:15:00,0.0,0.0,137.316,20951.32,VIC,['Solar']
WYASF,Wyalong,-33.804939,147.295155,2025-10-24T13:15:00,0.0,0.0,137.316,20951.32,NSW,['Solar']
YABULU,Townsville,-19.200374,146.618265,2025-10-24T13:15:00,0.0,0.0,137.316,20951.32,QLD,"['Gas', 'Coal Seam Methane', 'Solar', 'Solar']"
YAMBUK,Yambuk,-38.305278,142.018439,2025-10-24T13:15:00,0.0,0.0,137.316,20951.32,VIC,['Wind']
YARANSF,Yarranlea,-27.708939,151.532696,2025-10-24T13:15:00,0.0,0.0,137.316,20951.32,QLD,['Solar']
0TARONGBESS,Tarong,-26.780051,151.912068,2025-10-24T13:20:00,0.0,0.0,140.12,20740.15,QLD,['Black Coal']
AGLHAL,Hallett,-33.34931,138.752633,2025-10-24T13:20:00,0.0,0.0,140.12,20740.15,SA,"['Wind', 'Gas/Diesel', 'Gas']"
AGLSOM,Somerton,-37.630949,144.953098,2025-10-24T13:20:00,59.1,5.6895,140.12,20740.15,VIC,['Gas']
ANGASTON,Angaston,-34.503948,139.024296,2025-10-24T13:20:00,0.0,0.0,140.12,20740.15,SA,"['Liquid Fuel', 'Diesel']"
AVLSF,Avonlie,-34.919115,146.60954,2025-10-24T13:20:00,0.0,0.0,140.12,20740.15,NSW,['Solar']
B2PS,Braemar 2,-27.109873,150.907653,2025-10-24T13:20:00,121.9598,10.5533,140.12,20740.15,QLD,['Coal Seam Methane']
BALBESS,Ballarat,-37.567452,143.852741,2025-10-24T13:20:00,0.0,0.0,140.12,20740.15,VIC,"['Landfill Gas', 'Solar', 'Solar', 'Solar']"
BANGOWF,Bango,-34.767208,148.921499,2025-10-24T13:20:00,1.2983,0.0,140.12,20740.15,NSW,['Wind']
BANNSP,Bannerton,-34.67263,142.750362,2025-10-24T13:20:00,0.0,0.0,140.12,20740.15,VIC,['Solar']
BARCSF,Barcaldine,-23.547333,145.318972,2025-10-24T13:20:00,0.1,0.0,140.12,20740.15,QLD,"['Gas', 'Solar']"
BARKIPS,Barker Inlet,-34.804,138.524,2025-10-24T13:20:00,138.99,6.7995,140.12,20740.15,SA,['Gas']
BARRON,Barron Gorge,-16.85077,145.647049,2025-10-24T13:20:00,29.0425,0.0,140.12,20740.15,QLD,['Hydro']
BAYSW,Bayswater,-32.393502,150.953963,2025-10-24T13:20:00,1337.5449,97.3742,140.12,20740.15,NSW,['Black Coal']
BERYLSF,Beryl,-32.347501,149.460738,2025-10-24T13:20:00,0.0,0.0,140.12,20740.15,NSW,['Solar']
BHWF,Bald Hills,-38.758189,145.956062,2025-10-24T13:20:00,11.943,0.0,140.12,20740.15,VIC,['Wind']
BNGSF1,Bungala One,-32.423316,137.841798,2025-10-24T13:20:00,0.0,0.0,140.12,20740.15,SA,['Solar']
BNGSF2,Bungala Two,-32.406993,137.840933,2025-10-24T13:20:00,0.0,0.0,140.12,20740.15,SA,['Solar']
BOCOROCK,Boco Rock,-36.574527,149.124863,2025-10-24T13:20:00,2.84,0.0,140.12,20740.15,NSW,['Wind']
BODWF,Bodangora,-32.407128,149.04133,2025-10-24T13:20:00,2.7183,0.0,140.12,20740.15,NSW,['Wind']
BOLIVAR,Bolivar,-34.495482,138.387641,2025-10-24T13:20:00,0.0,0.0,140.12,20740.15,SA,['Gas']
BOLIVPS,Bolivar,-34.7772,138.5826,2025-10-24T13:20:00,31.76,2.1102,140.12,20740.15,SA,['Gas']
BOMENSF,Bomen,-35.0486,147.4439,2025-10-24T13:20:00,0.0,0.0,140.12,20740.15,NSW,['Solar']
BRAEMARA,Braemar,-27.111669,150.907647,2025-10-24T13:20:00,0.0,3.1653,140.12,20740.15,QLD,['Coal Seam Methane']
BROKENH,Broken Hill,-31.988905,141.391547,2025-10-24T13:20:00,0.0,0.0,140.12,20740.15,NSW,"['Solar', 'Diesel']"
BUTLERSG,Butlers Gorge,-42.267107,146.262127,2025-10-24T13:20:00,11.0,0.0,140.12,20740.15,TAS,['Hydro']
BWTR1,Broadwater,-29.016483,153.445756,2025-10-24T13:20:00,0.0,0.0,140.12,20740.15,NSW,"['Bagasse', 'Wood']"
CALLIDEC1,Callide C,-24.347222,150.608611,2025-10-24T13:20:00,417.725,30.8971,140.12,20740.15,QLD,['Black Coal']
CALL_B,Callide B,-24.333169,150.626322,2025-10-24T13:20:00,676.4,53.8799,140.12,20740.15,QLD,['Black Coal']
CANUNDA1,Canunda,-37.698303,140.383633,2025-10-24T13:20:00,4.0047,0.0,140.12,20740.15,SA,['Wind']
CAPTL_WF,Capital,-35.123534,149.500249,2025-10-24T13:20:00,0.0,0.0,140.12,20740.15,NSW,"['Solar', 'Wind', 'Solar', 'Solar']"
CATHROCK,Cathedral Rocks,-34.848741,135.592649,2025-10-24T13:20:00,34.5,0.0,140.12,20740.15,SA,['Wind']
CETHANA,Cethana,-41.479852,146.134472,2025-10-24T13:20:00,92.4964,0.0,140.12,20740.15,TAS,['Hydro']
CHALLWF,Challicum Hills,-37.395466,143.10459,2025-10-24T13:20:00,4.4,0.0,140.12,20740.15,VIC,['Wind']
CHILDSF,Childers,-25.295027,152.403674,2025-10-24T13:20:00,0.0,0.0,140.12,20740.15,QLD,['Solar']
CHYTWF,Cherry Tree,-37.1018,145.2656,2025-10-24T13:20:00,0.0,0.0,140.12,20740.15,VIC,['Wind']
CLARESF,Clare,-19.83977,147.21055,2025-10-24T13:20:00,0.0,0.0,140.12,20740.15,QLD,"['Solar', 'Solar']"
CLERMSF,Clermont,-22.839406,147.546031,2025-10-24T13:20:00,0.0,0.0,140.12,20740.15,QLD,['Solar']
CLOVER,Clover,-36.78515,147.219517,2025-10-24T13:20:00,0.0,0.0,140.12,20740.15,VIC,['Hydro']
CLRKCWF,Clarke Creek,-22.850446,149.453252,2025-10-24T13:20:00,283.188,0.0,140.12,20740.15,QLD,"['Wind', 'Wind']"
CLUNY,Cluny,-42.506229,146.681123,2025-10-24T13:20:00,17.9826,0.0,140.12,20740.15,TAS,['Hydro']
COHUNSF1,Cohuna,-35.880317,144.221531,2025-10-24T13:20:00,0.0,0.0,140.12,20740.15,VIC,['Solar']
COLONGRA,Colongra,-33.208781,151.54354,2025-10-24T13:20:00,0.0,0.0,140.12,20740.15,NSW,['Gas']
COOPGWF,Coopers Gap,-26.717004,151.449177,2025-10-24T13:20:00,278.2,0.0,140.12,20740.15,QLD,['Wind']
CROOKWF2,Crookwell 2,-34.547676,149.589254,2025-10-24T13:20:00,0.0,0.0,140.12,20740.15,NSW,['Wind']
CROOKWF3,Crookwell 3,-34.484645,149.54447,2025-10-24T13:20:00,0.0,0.0,140.12,20740.15,NSW,['Wind']
CRWASF1,Corowa,-35.98629,146.361456,2025-10-24T13:20:00,0.0,0.0,140.12,20740.15,NSW,['Solar']
CSPVPS,Collinsville,-20.55714,147.820552,2025-10-24T13:20:00,0.0,0.0,140.12,20740.15,QLD,['Solar']
CULLERIN,Cullerin Range,-34.750995,149.381027,2025-10-24T13:20:00,3.11,0.0,140.12,20740.15,NSW,['Wind']
DARLSF,Darlington Point,-34.644808,146.035756,2025-10-24T13:20:00,0.0,0.0,140.12,20740.15,NSW,['Solar']
DARTM,Dartmouth,-36.55529,147.519872,2025-10-24T13:20:00,0.0,0.0,140.12,20740.15,VIC,['Hydro']
DDPS1,Darling Downs,-27.116851,150.895391,2025-10-24T13:20:00,460.827,19.5016,140.12,20740.15,QLD,"['Gas', 'Solar', 'Wind']"
DDSF,Darling Downs,-27.112,150.8819,2025-10-24T13:20:00,0.0,0.0,140.12,20740.15,QLD,"['Gas', 'Solar', 'Wind']"
DRYCGT,Dry Creek,-34.847293,138.582297,2025-10-24T13:20:00,0.0,0.0,140.12,20740.15,SA,"['Gas', 'Solar']"
DULAWF,Dulacca,-26.637485,149.870186,2025-10-24T13:20:00,166.0,0.0,140.12,20740.15,QLD,['Wind']
DUNDWF,Dundonnell,-37.863894,142.943454,2025-10-24T13:20:00,9.92,0.0,140.12,20740.15,VIC,['Wind']
EILDON,Eildon,-37.221262,145.920966,2025-10-24T13:20:00,93.24,0.0,140.12,20740.15,VIC,['Hydro']
ERARING,Eraring,-33.061548,151.524612,2025-10-24T13:20:00,1962.1881,145.7689,140.12,20740.15,NSW,"['Black Coal', 'Battery']"
ERB,Eraring,-33.066837,151.515026,2025-10-24T13:20:00,0.0,0.0,140.12,20740.15,NSW,"['Black Coal', 'Battery']"
ERGT01,Eraring,-33.062117,151.517224,2025-10-24T13:20:00,0.0,0.0,140.12,20740.15,NSW,"['Black Coal', 'Battery']"
FINLEYSF,Finley,-35.64421,145.508644,2025-10-24T13:20:00,0.0,0.0,140.12,20740.15,NSW,['Solar']
GANGARR,Gangarri,-26.254813,149.986704,2025-10-24T13:20:00,0.0,0.0,140.12,20740.15,QLD,['Solar']
GANNBESS,Gannawarra,-33.735056,143.779462,2025-10-24T13:20:00,0.0,0.0,140.12,20740.15,VIC,['Solar']
GANNSF,Gannawarra,-35.73,143.7711,2025-10-24T13:20:00,0.0,0.0,140.12,20740.15,VIC,['Solar']
GIRGSF,Girgarre,-26.2548,149.9867,2025-10-24T13:20:00,0.0,0.0,140.12,20740.15,VIC,['Solar']
GLENSF,Glenrowan,-36.464,146.221,2025-10-24T13:20:00,0.0,0.0,140.12,20740.15,VIC,['Solar']
GLRWNSF,Glenrowan West,-36.488083,146.146887,2025-10-24T13:20:00,0.0,0.0,140.12,20740.15,VIC,['Solar']
GORDON,Gordon,-42.740157,145.983375,2025-10-24T13:20:00,21.7203,0.0,140.12,20740.15,TAS,['Hydro']
GRANWF,Granville Harbour,-41.802,145.056,2025-10-24T13:20:00,13.45,0.0,140.12,20740.15,TAS,['Wind']
GSTONE,Gladstone,-23.848741,151.220787,2025-10-24T13:20:00,1040.5869,81.9928,140.12,20740.15,QLD,['Black Coal']
GUNNING,Gunning,-34.676361,149.66443,2025-10-24T13:20:00,0.0,0.0,140.12,20740.15,NSW,['Wind']
HAMISF,Hamilton,-20.468593,147.799484,2025-10-24T13:20:00,0.0,0.0,140.12,20740.15,NT,['Solar']
HAMISF,Hamilton,-20.468593,147.799484,2025-10-24T13:20:00,0.0,0.0,140.12,20740.15,QLD,['Solar']
HAUGHT1,Haughton,-19.732168,147.076137,2025-10-24T13:20:00,0.0,0.0,140.12,20740.15,QLD,['Solar']
HAYMSF,Hayman,-20.487516,147.744778,2025-10-24T13:20:00,0.0,0.0,140.12,20740.15,QLD,['Solar']
HD1WF,Hawkesdale,-38.148008,142.360925,2025-10-24T13:20:00,0.31,0.0,140.12,20740.15,VIC,['Wind']
HILLSTN,Hillston Sun,-33.532991,145.522279,2025-10-24T13:20:00,0.0,0.0,140.12,20740.15,NSW,['Solar']
HUMEV,Hume,-36.106887,147.032572,2025-10-24T13:20:00,0.0,0.0,140.12,20740.15,NSW,['Hydro']
HUNTER,Hunter,-32.793406,151.478353,2025-10-24T13:20:00,0.0,0.0,140.12,20740.15,NSW,['Gas']
JEMALNG1,Jemalong,-33.388764,147.669375,2025-10-24T13:20:00,0.0,0.0,140.12,20740.15,NSW,['Solar']
KENNEDY,Kennedy Energy Park,-20.872792,144.413034,2025-10-24T13:20:00,38.2,0.0,140.12,20740.15,QLD,['Wind']
KIAMSF1,Kiamal,-35.018133,142.302953,2025-10-24T13:20:00,0.0,0.0,140.12,20740.15,VIC,"['Solar', 'Solar']"
KIATAWF,Kiata,-36.397693,141.746827,2025-10-24T13:20:00,5.0,0.0,140.12,20740.15,VIC,['Wind']
KOGANCK,Kogan Creek,-26.915285,150.748948,2025-10-24T13:20:00,0.0,11.1824,140.12,20740.15,QLD,['Black Coal']
KSP1,Kidston,-18.88,144.151,2025-10-24T13:20:00,0.0,0.0,140.12,20740.15,QLD,"['Solar', 'Solar', 'Hydro', 'Wind']"
LADBROKE,Ladbroke Grove,-37.456183,140.782699,2025-10-24T13:20:00,41.91,2.6363,140.12,20740.15,SA,['Gas']
LGAPWF1,Lincoln Gap,-32.546333,137.552763,2025-10-24T13:20:00,57.67,0.0,140.12,20740.15,SA,['Wind']
LILYVASF,Lilyvale,-23.070504,148.413865,2025-10-24T13:20:00,0.0,0.0,140.12,20740.15,QLD,['Solar']
LKBONNY1,Lake Bonney,-37.760504,140.405541,2025-10-24T13:20:00,5.9837,0.0,140.12,20740.15,SA,"['Wind', 'Battery']"
LK_ECHO,Lake Echo,-42.253339,146.620515,2025-10-24T13:20:00,0.0,0.0,140.12,20740.15,TAS,['Hydro']
LOYYB,Loy Yang B,-38.253619,146.585593,2025-10-24T13:20:00,577.125,53.9757,140.12,20740.15,VIC,['Brown Coal']
MACARTH,Macarthur,-38.043483,142.179081,2025-10-24T13:20:00,0.0,0.0,140.12,20740.15,VIC,['Wind']
MACKNTSH,Mackintosh,-41.701363,145.646558,2025-10-24T13:20:00,0.0,0.0,140.12,20740.15,TAS,['Hydro']
MANSLR,Manildra,-33.172831,148.71824,2025-10-24T13:20:00,0.0,0.0,140.12,20740.15,NSW,['Solar']
MARYRSF,Maryrorough,-27.708973,151.546869,2025-10-24T13:20:00,0.0,0.0,140.12,20740.15,QLD,['Solar']
MBAHNTH,Moranbah North,-21.978481,148.004809,2025-10-24T13:20:00,22.4,1.4537,140.12,20740.15,QLD,['Waste Coal Mine Gas']
MINTARO,Mintaro,-33.903149,138.738797,2025-10-24T13:20:00,0.0854,0.0061,140.12,20740.15,SA,['Gas']
MLSP,Mugga Lane,-35.398441,149.14906,2025-10-24T13:20:00,0.0,0.0,140.12,20740.15,ACT,['Landfill Gas']
MLWF,Mortons Lane,-37.833186,142.465288,2025-10-24T13:20:00,0.78,0.0,140.12,20740.15,ACT,['Wind']
MLWF,Mortons Lane,-37.833186,142.465288,2025-10-24T13:20:00,0.78,0.0,140.12,20740.15,VIC,['Wind']
MOLNGSF1,Molong,-33.082578,148.900073,2025-10-24T13:20:00,0.0,0.0,140.12,20740.15,NSW,['Solar']
MOORAWF1,Moorabool,-37.739433,144.171985,2025-10-24T13:20:00,0.0,0.0,140.12,20740.15,VIC,['Wind']
MOREESF,Moree,-29.572607,149.861266,2025-10-24T13:20:00,0.0,0.0,140.12,20740.15,SA,['Solar']
MORTLK,Mortlake,-38.062628,142.66633,2025-10-24T13:20:00,269.0,18.6922,140.12,20740.15,VIC,"['Gas', 'Wind']"
MP,Mt Piper,-33.360715,150.035698,2025-10-24T13:20:00,1417.0382,102.7776,140.12,20740.15,NSW,['Black Coal']
MRTLSWF,Mortlake South,-38.147965,142.882246,2025-10-24T13:20:00,0.0,0.0,140.12,20740.15,VIC,['Wind']
MTGELWF,Mt Gellibrand,-38.257657,143.798651,2025-10-24T13:20:00,0.0,0.0,140.12,20740.15,VIC,['Wind']
MTMERCER,Mt Mercer,-37.847593,143.870183,2025-10-24T13:20:00,3.1,0.0,140.12,20740.15,VIC,['Wind']
MUSSELRO,Musselroe,-40.777105,148.006315,2025-10-24T13:20:00,146.9,0.0,140.12,20740.15,TAS,['Wind']
MUWAWF,Murra Warra,-36.438821,142.246003,2025-10-24T13:20:00,11.61,0.0,140.12,20740.15,VIC,['Wind']
NEVERSF,Nevertire,-31.831044,147.705178,2025-10-24T13:20:00,0.0,0.0,140.12,20740.15,NSW,['Solar']
NEWENSF,New England,-30.627323,151.556425,2025-10-24T13:20:00,0.0,0.0,140.12,20740.15,NSW,"['Solar', 'Solar']"
NEWPORT,Newport,-37.841374,144.895479,2025-10-24T13:20:00,0.0,0.0,140.12,20740.15,VIC,['Gas']
NUMURKSF,Numurkah,-36.159275,145.473891,2025-10-24T13:20:00,0.0,0.0,140.12,20740.15,VIC,"['Solar', 'Solar']"
OAKEY,Oakey,-27.418207,151.678887,2025-10-24T13:20:00,0.0,0.0,140.12,20740.15,NSW,['Solar']
OAKEY,Oakey,-27.418207,151.678887,2025-10-24T13:20:00,0.0,0.0,140.12,20740.15,QLD,"['Gas', 'Solar']"
OSBORNE,Osborne,-34.7977,138.508099,2025-10-24T13:20:00,183.46,6.3384,140.12,20740.15,SA,"['Gas', 'Solar']"
PALOONA,Paloona,-41.28268,146.24858,2025-10-24T13:20:00,29.68,0.0,140.12,20740.15,TAS,['Hydro']
PORTWF,Portland,-38.361417,141.38456,2025-10-24T13:20:00,2.1,0.0,140.12,20740.15,VIC,['Wind']
QBYNB,Queanbeyan,-35.339311,149.215101,2025-10-24T13:20:00,0.0,0.0,140.12,20740.15,ACT,['Battery']
QUARANTN,Quarantine,-34.779074,138.522455,2025-10-24T13:20:00,0.0,3.7081,140.12,20740.15,SA,['Gas']
REECE,Reece,-41.723131,145.136468,2025-10-24T13:20:00,99.0027,0.0,140.12,20740.15,TAS,['Hydro']
ROWALLAN,Rowallan,-41.72957,146.218087,2025-10-24T13:20:00,0.0,0.0,140.12,20740.15,TAS,['Hydro']
RRSF,Ross River,-19.425305,146.715686,2025-10-24T13:20:00,0.0,0.0,140.12,20740.15,QLD,['Solar']
RUBICON,Rubicon,-37.292453,145.818202,2025-10-24T13:20:00,0.495,0.0,140.12,20740.15,VIC,['Hydro']
RYEPARK,Rye Park,-34.63317,148.95364,2025-10-24T13:20:00,9.9068,0.0,140.12,20740.15,NSW,['Wind']
SALTCRK,Salt Creek,-37.918698,142.796027,2025-10-24T13:20:00,0.26,0.0,140.12,20740.15,VIC,['Wind']
SAPHWF1,Sapphire,-29.710273,151.44558,2025-10-24T13:20:00,0.0,0.0,140.12,20740.15,NSW,"['Wind', 'Solar']"
SITHE,Smithfield,-33.850023,150.950051,2025-10-24T13:20:00,0.0,0.0,140.12,20740.15,NSW,['Gas']
SNOWSTH,Snowtown South,-33.862624,138.130367,2025-10-24T13:20:00,31.9,0.0,140.12,20740.15,SA,['Wind']
SNUG,Snuggery,-37.664996,140.414686,2025-10-24T13:20:00,0.0,0.0,140.12,20740.15,SA,['Diesel']
SRSF,Susan River,-25.420275,152.742028,2025-10-24T13:20:00,0.0,0.0,140.12,20740.15,QLD,['Solar']
STANVAC,Port Stanvac,-35.110345,138.490872,2025-10-24T13:20:00,0.0,0.0,140.12,20740.15,SA,['Diesel']
STANWELL,Stanwell,-23.507501,150.317884,2025-10-24T13:20:00,1115.2896,91.1654,140.12,20740.15,QLD,['Black Coal']
STWF,Silverton,-31.86095,141.296349,2025-10-24T13:20:00,17.2763,0.0,140.12,20740.15,NSW,['Wind']
SUNRSF1,Sunraysia,-34.821489,143.50916,2025-10-24T13:20:00,0.0,0.0,140.12,20740.15,NSW,['Solar']
SUNTPSF,Suntop,-32.5742,148.860469,2025-10-24T13:20:00,0.0,0.0,140.12,20740.15,NSW,['Solar']
SWAN_E,Swanbank E,-27.655286,152.818644,2025-10-24T13:20:00,110.2725,7.5958,140.12,20740.15,QLD,['Gas']
TALLAWAR,Tallawarra,-34.523089,150.808566,2025-10-24T13:20:00,0.0,0.0,140.12,20740.15,NSW,['Gas']
TARONG,Tarong,-26.774397,151.917838,2025-10-24T13:20:00,913.0,69.2454,140.12,20740.15,QLD,['Black Coal']
TARRALEA,Tarraleah,-42.301736,146.456661,2025-10-24T13:20:00,27.8,0.0,140.12,20740.15,TAS,['Hydro']
TB2SF,Tailem Bend 2,-35.28,139.49,2025-10-24T13:20:00,3.1474,0.0,140.12,20740.15,SA,['Solar']
TBSF,Tailem Bend,-35.28,139.49,2025-10-24T13:20:00,0.0,0.0,140.12,20740.15,SA,['Solar']
TIB,Torrens Island,-34.805831,138.524192,2025-10-24T13:20:00,0.46,0.0,140.12,20740.15,SA,"['Gas/Diesel', 'Gas']"
TORRIS,Torrens Island,-34.804559,138.522229,2025-10-24T13:20:00,370.0,17.9457,140.12,20740.15,SA,"['Gas/Diesel', 'Gas']"
TREVALLN,Trevallyn,-41.422302,147.112025,2025-10-24T13:20:00,94.7855,0.0,140.12,20740.15,TAS,['Hydro']
TRIBUTE,Tribute,-41.811468,145.653252,2025-10-24T13:20:00,45.42,0.0,140.12,20740.15,TAS,['Hydro']
TUNGATIN,Tungatinah,-42.296396,146.455881,2025-10-24T13:20:00,96.03,0.0,140.12,20740.15,TAS,['Hydro']
URANQ,Uranquinty,-35.180226,147.21566,2025-10-24T13:20:00,149.9321,7.044,140.12,20740.15,NSW,['Gas']
WAGGNSF,Wagga North,-35.069081,147.438227,2025-10-24T13:20:00,0.0,0.0,140.12,20740.15,NSW,['Solar']
WANDSF,Wandoan,-26.263564,149.772243,2025-10-24T13:20:00,0.0,0.0,140.12,20740.15,QLD,"['Solar', 'Solar']"
WARWSF,Warwick,-28.18321,152.066792,2025-10-24T13:20:00,0.0,0.0,140.12,20740.15,QLD,['Solar']
WATERLWF,Waterloo,-33.991095,138.915723,2025-10-24T13:20:00,12.2,0.0,140.12,20740.15,SA,"['Wind', 'Solar']"
WELLSF1,Wellington,-32.5207,148.9675,2025-10-24T13:20:00,0.0,0.0,140.12,20740.15,NSW,['Solar']
WEMENSF1,Wemen,-34.80259,142.543348,2025-10-24T13:20:00,0.0,0.0,140.12,20740.15,VIC,['Solar']
WGWF,Willogoleche,-33.393569,138.84821,2025-10-24T13:20:00,0.0,0.0,140.12,20740.15,SA,['Wind']
WHITSF,Whitsunday,-20.537259,147.80475,2025-10-24T13:20:00,0.0,0.0,140.12,20740.15,QLD,['Solar']
WINTSF1,Winton,-36.499695,146.114554,2025-10-24T13:20:00,0.0,0.0,140.12,20740.15,VIC,"['Solar', 'Solar']"
WIVENHOE,Wivenhoe,-27.372224,152.632362,2025-10-24T13:20:00,0.0,0.0,140.12,20740.15,QLD,['Hydro']
WKIEWA,West Kiewa,-36.759674,147.186082,2025-10-24T13:20:00,39.7,0.0,140.12,20740.15,VIC,['Hydro']
WOOLGSF,Woolooga,-26.084522,152.441226,2025-10-24T13:20:00,0.0,0.0,140.12,20740.15,QLD,['Solar']
WOOLNTH1,Woolnorth,-40.736375,144.694821,2025-10-24T13:20:00,83.25,0.0,140.12,20740.15,TAS,['Wind']
WRSF1,White Rock Solar Farm,-29.763292,151.552402,2025-10-24T13:20:00,0.0,0.0,140.12,20740.15,NSW,['Solar']
WRWF1,White Rock Wind Farm,-29.7718,151.5755,2025-10-24T13:20:00,0.4822,0.0,140.12,20740.15,NSW,['Wind']
WSTWYSF,West Wyalong,-33.795635,147.314545,2025-10-24T13:20:00,0.0,0.0,140.12,20740.15,NSW,['Solar']
WYASF,Wyalong,-33.804939,147.295155,2025-10-24T13:20:00,0.0,0.0,140.12,20740.15,NSW,['Solar']
YABULU,Townsville,-19.200374,146.618265,2025-10-24T13:20:00,0.0,0.0,140.12,20740.15,QLD,"['Gas', 'Coal Seam Methane', 'Solar', 'Solar']"
YAMBUK,Yambuk,-38.305278,142.018439,2025-10-24T13:20:00,0.0,0.0,140.12,20740.15,VIC,['Wind']
AGLSOM,Somerton,-37.630949,144.953098,2025-10-24T13:25:00,59.675,5.7072,135.988,20607.03,VIC,['Gas']
ANGASTON,Angaston,-34.503948,139.024296,2025-10-24T13:25:00,0.0,0.0,135.988,20607.03,SA,"['Liquid Fuel', 'Diesel']"
AVLSF,Avonlie,-34.919115,146.60954,2025-10-24T13:25:00,0.0,0.0,135.988,20607.03,NSW,['Solar']
B2PS,Braemar 2,-27.109873,150.907653,2025-10-24T13:25:00,145.1331,11.1139,135.988,20607.03,QLD,['Coal Seam Methane']
BALBESS,Ballarat,-37.567452,143.852741,2025-10-24T13:25:00,0.0,0.0,135.988,20607.03,VIC,"['Landfill Gas', 'Solar', 'Solar', 'Solar']"
BANGOWF,Bango,-34.767208,148.921499,2025-10-24T13:25:00,1.1997,0.0,135.988,20607.03,NSW,['Wind']
BARCALDN,Barcaldine,-23.552171,145.314851,2025-10-24T13:25:00,0.0,0.0,135.988,20607.03,QLD,"['Gas', 'Solar']"
BARCSF,Barcaldine,-23.547333,145.318972,2025-10-24T13:25:00,0.1,0.0,135.988,20607.03,QLD,"['Gas', 'Solar']"
BARKIPS,Barker Inlet,-34.804,138.524,2025-10-24T13:25:00,138.58,6.7894,135.988,20607.03,SA,['Gas']
BARRON,Barron Gorge,-16.85077,145.647049,2025-10-24T13:25:00,28.93,0.0,135.988,20607.03,QLD,['Hydro']
BASTYAN,Bastyan,-41.736231,145.531589,2025-10-24T13:25:00,0.0,0.0,135.988,20607.03,TAS,['Hydro']
BAYSW,Bayswater,-32.393502,150.953963,2025-10-24T13:25:00,1343.038,97.5784,135.988,20607.03,NSW,['Black Coal']
BHWF,Bald Hills,-38.758189,145.956062,2025-10-24T13:25:00,12.084,0.0,135.988,20607.03,VIC,['Wind']
BIALAWF,Biala,-34.587836,149.369848,2025-10-24T13:25:00,0.0,0.0,135.988,20607.03,NSW,['Wind']
BNGSF1,Bungala One,-32.423316,137.841798,2025-10-24T13:25:00,0.0,0.0,135.988,20607.03,SA,['Solar']
BNGSF2,Bungala Two,-32.406993,137.840933,2025-10-24T13:25:00,0.0,0.0,135.988,20607.03,SA,['Solar']
BOCOROCK,Boco Rock,-36.574527,149.124863,2025-10-24T13:25:00,3.3,0.0,135.988,20607.03,NSW,['Wind']
BOMENSF,Bomen,-35.0486,147.4439,2025-10-24T13:25:00,0.0,0.0,135.988,20607.03,NSW,['Solar']
BRAEMARA,Braemar,-27.111669,150.907647,2025-10-24T13:25:00,0.0,3.1653,135.988,20607.03,QLD,['Coal Seam Methane']
BROKENH,Broken Hill,-31.988905,141.391547,2025-10-24T13:25:00,0.0,0.0,135.988,20607.03,NSW,"['Solar', 'Diesel']"
BRYB1WF1,Berrybank,-37.980741,143.472217,2025-10-24T13:25:00,2.3316,0.0,135.988,20607.03,VIC,['Wind']
CALLIDEC1,Callide C,-24.347222,150.608611,2025-10-24T13:25:00,417.725,30.8971,135.988,20607.03,QLD,['Black Coal']
CALL_B,Callide B,-24.333169,150.626322,2025-10-24T13:25:00,675.6,53.8481,135.988,20607.03,QLD,['Black Coal']
CANUNDA1,Canunda,-37.698303,140.383633,2025-10-24T13:25:00,4.0047,0.0,135.988,20607.03,SA,['Wind']
CHALLWF,Challicum Hills,-37.395466,143.10459,2025-10-24T13:25:00,4.1,0.0,135.988,20607.03,VIC,['Wind']
CHBESS,Chinchilla,-26.918551,150.745399,2025-10-24T13:25:00,149.5462,0.0,135.988,20607.03,QLD,['Battery']
CHILDSF,Childers,-25.295027,152.403674,2025-10-24T13:25:00,0.0,0.0,135.988,20607.03,QLD,['Solar']
CHYTWF,Cherry Tree,-37.1018,145.2656,2025-10-24T13:25:00,0.0,0.0,135.988,20607.03,VIC,['Wind']
CLARESF,Clare,-19.83977,147.21055,2025-10-24T13:25:00,0.0,0.0,135.988,20607.03,QLD,"['Solar', 'Solar']"
CLEMGPWF,Clements Gap,-33.489773,138.111695,2025-10-24T13:25:00,8.8603,0.0,135.988,20607.03,SA,['Wind']
CLERMSF,Clermont,-22.839406,147.546031,2025-10-24T13:25:00,0.0,0.0,135.988,20607.03,QLD,['Solar']
CLUNY,Cluny,-42.506229,146.681123,2025-10-24T13:25:00,17.9451,0.0,135.988,20607.03,TAS,['Hydro']
COHUNSF1,Cohuna,-35.880317,144.221531,2025-10-24T13:25:00,0.0,0.0,135.988,20607.03,VIC,['Solar']
COLONGRA,Colongra,-33.208781,151.54354,2025-10-24T13:25:00,0.0,0.0,135.988,20607.03,NSW,['Gas']
COLUMSF,Columboola,-26.636088,150.28221,2025-10-24T13:25:00,0.0,0.0,135.988,20607.03,QLD,['Solar']
CONDONG1,Condong,-28.314766,153.433808,2025-10-24T13:25:00,23.0,0.0711,135.988,20607.03,NSW,"['Bagasse', 'Wood']"
COOPGWF,Coopers Gap,-26.717004,151.449177,2025-10-24T13:25:00,253.39,0.0,135.988,20607.03,QLD,['Wind']
CROOKWF2,Crookwell 2,-34.547676,149.589254,2025-10-24T13:25:00,0.0,0.0,135.988,20607.03,NSW,['Wind']
CROOKWF3,Crookwell 3,-34.484645,149.54447,2025-10-24T13:25:00,0.0,0.0,135.988,20607.03,NSW,['Wind']
CROWLWF,Crowlands,-36.97615,143.097998,2025-10-24T13:25:00,2.4659,0.0,135.988,20607.03,VIC,['Wind']
CRURWF1,Crudine Ridge,-32.864748,149.81297,2025-10-24T13:25:00,1.7988,0.0,135.988,20607.03,NSW,['Wind']
CRWASF1,Corowa,-35.98629,146.361456,2025-10-24T13:25:00,0.0,0.0,135.988,20607.03,NSW,['Solar']
CSPVPS,Collinsville,-20.55714,147.820552,2025-10-24T13:25:00,0.0,0.0,135.988,20607.03,QLD,['Solar']
CTHLWF,Cattle Hill,-42.154845,146.694693,2025-10-24T13:25:00,114.3053,0.0,135.988,20607.03,TAS,['Wind']
CULLERIN,Cullerin Range,-34.750995,149.381027,2025-10-24T13:25:00,2.76,0.0,135.988,20607.03,NSW,['Wind']
DARLSF,Darlington Point,-34.644808,146.035756,2025-10-24T13:25:00,0.0,0.0,135.988,20607.03,NSW,['Solar']
DARTM,Dartmouth,-36.55529,147.519872,2025-10-24T13:25:00,0.0,0.0,135.988,20607.03,VIC,['Hydro']
DDPS1,Darling Downs,-27.116851,150.895391,2025-10-24T13:25:00,461.3752,19.5115,135.988,20607.03,QLD,"['Gas', 'Solar', 'Wind']"
DEIBDL,Bairnsdale,-37.842231,147.563725,2025-10-24T13:25:00,0.0,0.0,135.988,20607.03,VIC,['Gas']
DULAWF,Dulacca,-26.637485,149.870186,2025-10-24T13:25:00,166.9,0.0,135.988,20607.03,QLD,['Wind']
DUNDWF,Dundonnell,-37.863894,142.943454,2025-10-24T13:25:00,13.2,0.0,135.988,20607.03,VIC,['Wind']
EILDON,Eildon,-37.221262,145.920966,2025-10-24T13:25:00,93.48,0.0,135.988,20607.03,VIC,['Hydro']
ERARING,Eraring,-33.061548,151.524612,2025-10-24T13:25:00,1962.6277,145.7853,135.988,20607.03,NSW,"['Black Coal', 'Battery']"
ERB,Eraring,-33.066837,151.515026,2025-10-24T13:25:00,0.0,0.0,135.988,20607.03,NSW,"['Black Coal', 'Battery']"
ERGT01,Eraring,-33.062117,151.517224,2025-10-24T13:25:00,0.0,0.0,135.988,20607.03,NSW,"['Black Coal', 'Battery']"
FISHER,Fisher,-41.672662,146.268739,2025-10-24T13:25:00,42.37,0.0,135.988,20607.03,TAS,['Hydro']
GANNBESS,Gannawarra,-33.735056,143.779462,2025-10-24T13:25:00,0.0,0.0,135.988,20607.03,VIC,['Solar']
GANNSF,Gannawarra,-35.73,143.7711,2025-10-24T13:25:00,0.0,0.0,135.988,20607.03,VIC,['Solar']
GERMCRK,German Creek,-22.928526,148.549097,2025-10-24T13:25:00,16.253,0.797,135.988,20607.03,QLD,['Waste Coal Mine Gas']
GLENSF,Glenrowan,-36.464,146.221,2025-10-24T13:25:00,0.0,0.0,135.988,20607.03,VIC,['Solar']
GLRWNSF,Glenrowan West,-36.488083,146.146887,2025-10-24T13:25:00,0.0,0.0,135.988,20607.03,VIC,['Solar']
GNNDHSF,Gunnedah,-30.965469,150.367917,2025-10-24T13:25:00,0.0,0.0,135.988,20607.03,NSW,"['Solar', 'Solar']"
GOONUMSF,Goonumbla,-33.106413,148.099274,2025-10-24T13:25:00,0.0,0.0,135.988,20607.03,NSW,['Solar']
GRANWF,Granville Harbour,-41.802,145.056,2025-10-24T13:25:00,15.18,0.0,135.988,20607.03,TAS,['Wind']
GSTONE,Gladstone,-23.848741,151.220787,2025-10-24T13:25:00,1040.6963,81.9972,135.988,20607.03,QLD,['Black Coal']
GULLRGWF,Gullen Range,-34.624512,149.458549,2025-10-24T13:25:00,0.0,0.0,135.988,20607.03,NSW,['Wind']
GUNNING,Gunning,-34.676361,149.66443,2025-10-24T13:25:00,0.0,0.0,135.988,20607.03,NSW,['Wind']
HAMISF,Hamilton,-20.468593,147.799484,2025-10-24T13:25:00,0.0,0.0,135.988,20607.03,NT,['Solar']
HAMISF,Hamilton,-20.468593,147.799484,2025-10-24T13:25:00,0.0,0.0,135.988,20607.03,QLD,['Solar']
HAUGHT1,Haughton,-19.732168,147.076137,2025-10-24T13:25:00,0.0,0.0,135.988,20607.03,QLD,['Solar']
HAYMSF,Hayman,-20.487516,147.744778,2025-10-24T13:25:00,0.0,0.0,135.988,20607.03,QLD,['Solar']
HD1WF,Hawkesdale,-38.148008,142.360925,2025-10-24T13:25:00,0.53,0.0,135.988,20607.03,VIC,['Wind']
HILLSTN,Hillston Sun,-33.532991,145.522279,2025-10-24T13:25:00,0.0,0.0,135.988,20607.03,NSW,['Solar']
HUMENSW,Hume,-36.106383,147.032263,2025-10-24T13:25:00,19.9139,0.0,135.988,20607.03,NSW,['Hydro']
HUMEV,Hume,-36.106887,147.032572,2025-10-24T13:25:00,0.0,0.0,135.988,20607.03,NSW,['Hydro']
HUNTER,Hunter,-32.793406,151.478353,2025-10-24T13:25:00,0.0,0.0,135.988,20607.03,NSW,['Gas']
JBUTTERS,John Butters,-42.15589,145.536508,2025-10-24T13:25:00,6.8361,0.0,135.988,20607.03,TAS,['Hydro']
JEMALNG1,Jemalong,-33.388764,147.669375,2025-10-24T13:25:00,0.0,0.0,135.988,20607.03,NSW,['Solar']
JUNEESF,Junee,-34.81124,147.572099,2025-10-24T13:25:00,0.0,0.0,135.988,20607.03,NSW,['Solar']
KAREEYA,Kareeya,-17.766456,145.576884,2025-10-24T13:25:00,85.585,0.0,135.988,20607.03,QLD,['Hydro']
KENNEDY,Kennedy Energy Park,-20.872792,144.413034,2025-10-24T13:25:00,38.1,0.0,135.988,20607.03,QLD,['Wind']
KIAMSF1,Kiamal,-35.018133,142.302953,2025-10-24T13:25:00,0.0,0.0,135.988,20607.03,VIC,"['Solar', 'Solar']"
KIATAWF,Kiata,-36.397693,141.746827,2025-10-24T13:25:00,4.5,0.0,135.988,20607.03,VIC,['Wind']
KOGANCK,Kogan Creek,-26.915285,150.748948,2025-10-24T13:25:00,0.0,11.1824,135.988,20607.03,QLD,['Black Coal']
KSP1,Kidston,-18.88,144.151,2025-10-24T13:25:00,0.0,0.0,135.988,20607.03,QLD,"['Solar', 'Solar', 'Hydro', 'Wind']"
LADBROKE,Ladbroke Grove,-37.456183,140.782699,2025-10-24T13:25:00,20.89,2.1916,135.988,20607.03,SA,['Gas']
LBBESS,Lake Bonney,-37.738787,140.384672,2025-10-24T13:25:00,0.0,0.0,135.988,20607.03,SA,"['Wind', 'Battery']"
LGAPWF1,Lincoln Gap,-32.546333,137.552763,2025-10-24T13:25:00,58.35,0.0,135.988,20607.03,SA,['Wind']
LILYVASF,Lilyvale,-23.070504,148.413865,2025-10-24T13:25:00,0.0,0.0,135.988,20607.03,QLD,['Solar']
LIMBESS,Limondale,-34.769354,143.559464,2025-10-24T13:25:00,0.0,0.0,135.988,20607.03,NSW,['Solar']
LIMOSF1,Limondale,-34.775502,143.508046,2025-10-24T13:25:00,0.0,0.0,135.988,20607.03,NSW,['Solar']
LKBONNY1,Lake Bonney,-37.760504,140.405541,2025-10-24T13:25:00,5.6265,0.0,135.988,20607.03,SA,"['Wind', 'Battery']"
LK_ECHO,Lake Echo,-42.253339,146.620515,2025-10-24T13:25:00,0.0,0.0,135.988,20607.03,TAS,['Hydro']
LONSDALE,Lonsdale,-35.109718,138.490962,2025-10-24T13:25:00,0.0,0.0,135.988,20607.03,SA,['Diesel']
LOYYB,Loy Yang B,-38.253619,146.585593,2025-10-24T13:25:00,578.25,54.0282,135.988,20607.03,VIC,['Brown Coal']
LRSF,Longreach,-23.455048,144.227917,2025-10-24T13:25:00,0.0,0.0,135.988,20607.03,QLD,['Solar']
MACARTH,Macarthur,-38.043483,142.179081,2025-10-24T13:25:00,0.0,0.0,135.988,20607.03,VIC,['Wind']
MACKNTSH,Mackintosh,-41.701363,145.646558,2025-10-24T13:25:00,0.0,0.0,135.988,20607.03,TAS,['Hydro']
MANSLR,Manildra,-33.172831,148.71824,2025-10-24T13:25:00,0.0,0.0,135.988,20607.03,NSW,['Solar']
MARYRSF,Maryrorough,-27.708973,151.546869,2025-10-24T13:25:00,0.0,0.0,135.988,20607.03,QLD,['Solar']
MBAHNTH,Moranbah North,-21.978481,148.004809,2025-10-24T13:25:00,22.4,1.4537,135.988,20607.03,QLD,['Waste Coal Mine Gas']
MEADOWBK,Meadowbank,-42.610835,146.846388,2025-10-24T13:25:00,43.6702,0.0,135.988,20607.03,TAS,['Hydro']
MILLMERN,Millmerran,-27.961657,151.28091,2025-10-24T13:25:00,814.9076,55.8183,135.988,20607.03,QLD,['Black Coal']
MINTARO,Mintaro,-33.903149,138.738797,2025-10-24T13:25:00,0.0854,0.0061,135.988,20607.03,SA,['Gas']
MLSP,Mugga Lane,-35.398441,149.14906,2025-10-24T13:25:00,0.0,0.0,135.988,20607.03,ACT,['Landfill Gas']
MLWF,Mortons Lane,-37.833186,142.465288,2025-10-24T13:25:00,0.48,0.0,135.988,20607.03,ACT,['Wind']
MLWF,Mortons Lane,-37.833186,142.465288,2025-10-24T13:25:00,0.48,0.0,135.988,20607.03,VIC,['Wind']
MOLNGSF1,Molong,-33.082578,148.900073,2025-10-24T13:25:00,0.0,0.0,135.988,20607.03,NSW,['Solar']
MOORAWF1,Moorabool,-37.739433,144.171985,2025-10-24T13:25:00,0.0,0.0,135.988,20607.03,VIC,['Wind']
MOREESF,Moree,-29.572607,149.861266,2025-10-24T13:25:00,0.0,0.0,135.988,20607.03,NSW,['Solar']
MOREESF,Moree,-29.572607,149.861266,2025-10-24T13:25:00,0.0,0.0,135.988,20607.03,SA,['Solar']
MORTLK,Mortlake,-38.062628,142.66633,2025-10-24T13:25:00,268.0,18.6693,135.988,20607.03,VIC,"['Gas', 'Wind']"
MSTUART,Mt Stuart,-19.337156,146.851239,2025-10-24T13:25:00,0.0,0.0,135.988,20607.03,QLD,"['Kerosene', 'Diesel']"
MTGELWF,Mt Gellibrand,-38.257657,143.798651,2025-10-24T13:25:00,0.0,0.0,135.988,20607.03,VIC,['Wind']
MTMERCER,Mt Mercer,-37.847593,143.870183,2025-10-24T13:25:00,4.0,0.0,135.988,20607.03,VIC,['Wind']
MTMILLAR,Mt Millar,-33.619342,136.717568,2025-10-24T13:25:00,15.3,0.0,135.988,20607.03,SA,['Wind']
MURRAY,Murray,-36.245992,148.188552,2025-10-24T13:25:00,771.0001,0.0,135.988,20607.03,NT,['Diesel']
MURRAY,Murray,-36.245992,148.188552,2025-10-24T13:25:00,771.0001,0.0,135.988,20607.03,QLD,['Diesel']
MUSSELRO,Musselroe,-40.777105,148.006315,2025-10-24T13:25:00,151.3,0.0,135.988,20607.03,TAS,['Wind']
MUWAWF,Murra Warra,-36.438821,142.246003,2025-10-24T13:25:00,19.25,0.0,135.988,20607.03,VIC,['Wind']
NEVERSF,Nevertire,-31.831044,147.705178,2025-10-24T13:25:00,0.0,0.0,135.988,20607.03,NSW,['Solar']
NEWENSF,New England,-30.627323,151.556425,2025-10-24T13:25:00,0.0,0.0,135.988,20607.03,NSW,"['Solar', 'Solar']"
NEWPORT,Newport,-37.841374,144.895479,2025-10-24T13:25:00,0.0,0.0,135.988,20607.03,VIC,['Gas']
NPPPPS,Pelican Point,-34.764365,138.505399,2025-10-24T13:25:00,148.7213,5.0022,135.988,20607.03,SA,['Gas']
NUMURKSF,Numurkah,-36.159275,145.473891,2025-10-24T13:25:00,0.0,0.0,135.988,20607.03,VIC,"['Solar', 'Solar']"
OAKEY,Oakey,-27.418207,151.678887,2025-10-24T13:25:00,0.0,0.0,135.988,20607.03,NSW,['Solar']
OAKEY,Oakey,-27.418207,151.678887,2025-10-24T13:25:00,0.0,0.0,135.988,20607.03,QLD,"['Gas', 'Solar']"
OAKEY2SF,Oakey 2,-27.402454,151.642576,2025-10-24T13:25:00,0.0,0.0,135.988,20607.03,QLD,['Solar']
OAKLAND,Oaklands Hill,-37.679481,142.552995,2025-10-24T13:25:00,0.0,0.0,135.988,20607.03,VIC,['Wind']
OSBORNE,Osborne,-34.7977,138.508099,2025-10-24T13:25:00,183.33,6.3362,135.988,20607.03,SA,"['Gas', 'Solar']"
PALOONA,Paloona,-41.28268,146.24858,2025-10-24T13:25:00,29.53,0.0,135.988,20607.03,TAS,['Hydro']
PORTLCN,Port Lincoln,-34.700616,135.80453,2025-10-24T13:25:00,0.0,0.0,135.988,20607.03,SA,['Diesel']
PORTWF,Portland,-38.361417,141.38456,2025-10-24T13:25:00,1.2,0.0,135.988,20607.03,VIC,['Wind']
PSF,Parkes,-33.113056,148.076372,2025-10-24T13:25:00,0.0015,0.0,135.988,20607.03,WA,"['Gas/Diesel', 'Gas']"
QBYNB,Queanbeyan,-35.339311,149.215101,2025-10-24T13:25:00,0.0,0.0,135.988,20607.03,ACT,['Battery']
QUARANTN,Quarantine,-34.779074,138.522455,2025-10-24T13:25:00,0.0,3.7081,135.988,20607.03,SA,['Gas']
REECE,Reece,-41.723131,145.136468,2025-10-24T13:25:00,99.0401,0.0,135.988,20607.03,TAS,['Hydro']
ROMA,Roma,-26.576788,148.839485,2025-10-24T13:25:00,0.0,0.0,135.988,20607.03,QLD,['Gas']
ROYALLA,Royalla,-35.486052,149.141966,2025-10-24T13:25:00,0.0,0.0,135.988,20607.03,ACT,['Solar']
RRSF,Ross River,-19.425305,146.715686,2025-10-24T13:25:00,0.0,0.0,135.988,20607.03,QLD,['Solar']
RUBICON,Rubicon,-37.292453,145.818202,2025-10-24T13:25:00,0.495,0.0,135.988,20607.03,VIC,['Hydro']
RYEPARK,Rye Park,-34.63317,148.95364,2025-10-24T13:25:00,8.5835,0.0,135.988,20607.03,NSW,['Wind']
SALTCRK,Salt Creek,-37.918698,142.796027,2025-10-24T13:25:00,0.96,0.0,135.988,20607.03,VIC,['Wind']
SAPHWF1,Sapphire,-29.710273,151.44558,2025-10-24T13:25:00,0.0,0.0,135.988,20607.03,NSW,"['Wind', 'Solar']"
SHOALHAV,Shoalhaven,-34.733085,150.4667,2025-10-24T13:25:00,0.0,0.0,135.988,20607.03,NSW,"['Landfill Gas', 'Hydro', 'Solar', 'Solar']"
SITHE,Smithfield,-33.850023,150.950051,2025-10-24T13:25:00,0.0,0.0,135.988,20607.03,NSW,['Gas']
SMTHBES1,Smithfield,-33.849972,150.947448,2025-10-24T13:25:00,0.0,0.0,135.988,20607.03,NSW,['Gas']
SNAPPER,Snapper Point,-34.76452,138.50819,2025-10-24T13:25:00,0.0,0.0,135.988,20607.03,SA,"['Diesel', 'Gas']"
SNOWSTH,Snowtown South,-33.862624,138.130367,2025-10-24T13:25:00,32.7,0.0,135.988,20607.03,SA,['Wind']
SNOWTOWN,Snowtown,-33.691598,138.166022,2025-10-24T13:25:00,22.4887,0.0,135.988,20607.03,SA,"['Wind', 'Solar']"
SNUG,Snuggery,-37.664996,140.414686,2025-10-24T13:25:00,0.0,0.0,135.988,20607.03,SA,['Diesel']
SRSF,Susan River,-25.420275,152.742028,2025-10-24T13:25:00,0.0,0.0,135.988,20607.03,QLD,['Solar']
STANVAC,Port Stanvac,-35.110345,138.490872,2025-10-24T13:25:00,0.0,0.0,135.988,20607.03,SA,['Diesel']
STANWELL,Stanwell,-23.507501,150.317884,2025-10-24T13:25:00,1119.6605,91.3213,135.988,20607.03,QLD,['Black Coal']
STARFHILL,Starfish Hill,-35.578983,138.139653,2025-10-24T13:25:00,6.898,0.0,135.988,20607.03,SA,['Wind']
STWF,Silverton,-31.86095,141.296349,2025-10-24T13:25:00,16.0458,0.0,135.988,20607.03,NSW,['Wind']
SUNRSF1,Sunraysia,-34.821489,143.50916,2025-10-24T13:25:00,0.0,0.0,135.988,20607.03,NSW,['Solar']
SUNTPSF,Suntop,-32.5742,148.860469,2025-10-24T13:25:00,0.0,0.0,135.988,20607.03,NSW,['Solar']
SWAN_E,Swanbank E,-27.655286,152.818644,2025-10-24T13:25:00,110.2725,7.5958,135.988,20607.03,QLD,['Gas']
TALLAWAR,Tallawarra,-34.523089,150.808566,2025-10-24T13:25:00,0.0,0.0,135.988,20607.03,NSW,['Gas']
TARALGA,Taralga,-34.425387,149.859603,2025-10-24T13:25:00,0.0,0.0,135.988,20607.03,NSW,['Wind']
TARONG,Tarong,-26.774397,151.917838,2025-10-24T13:25:00,911.9,69.2048,135.988,20607.03,QLD,['Black Coal']
TARRALEA,Tarraleah,-42.301736,146.456661,2025-10-24T13:25:00,28.0,0.0,135.988,20607.03,TAS,['Hydro']
TB2SF,Tailem Bend 2,-35.28,139.49,2025-10-24T13:25:00,0.0,0.0,135.988,20607.03,SA,['Solar']
TBSF,Tailem Bend,-35.28,139.49,2025-10-24T13:25:00,0.0,0.0,135.988,20607.03,SA,['Solar']
TIB,Torrens Island,-34.805831,138.524192,2025-10-24T13:25:00,0.26,0.0,135.988,20607.03,SA,"['Gas/Diesel', 'Gas']"
TORRIS,Torrens Island,-34.804559,138.522229,2025-10-24T13:25:00,379.0,18.1617,135.988,20607.03,SA,"['Gas/Diesel', 'Gas']"
TREVALLN,Trevallyn,-41.422302,147.112025,2025-10-24T13:25:00,94.6035,0.0,135.988,20607.03,TAS,['Hydro']
TRIBUTE,Tribute,-41.811468,145.653252,2025-10-24T13:25:00,45.13,0.0,135.988,20607.03,TAS,['Hydro']
TUNGATIN,Tungatinah,-42.296396,146.455881,2025-10-24T13:25:00,96.14,0.0,135.988,20607.03,TAS,['Hydro']
TVCCPS,Tamar Valley,-41.139268,146.906185,2025-10-24T13:25:00,0.0,0.0,135.988,20607.03,TAS,['Gas']
URANQ,Uranquinty,-35.180226,147.21566,2025-10-24T13:25:00,149.7185,7.039,135.988,20607.03,NSW,['Gas']
WAGGNSF,Wagga North,-35.069081,147.438227,2025-10-24T13:25:00,0.0,0.0,135.988,20607.03,NSW,['Solar']
WANDSF,Wandoan,-26.263564,149.772243,2025-10-24T13:25:00,0.0,0.0,135.988,20607.03,QLD,"['Solar', 'Solar']"
WARWSF,Warwick,-28.18321,152.066792,2025-10-24T13:25:00,0.0,0.0,135.988,20607.03,QLD,['Solar']
WATERLWF,Waterloo,-33.991095,138.915723,2025-10-24T13:25:00,14.4,0.0,135.988,20607.03,SA,"['Wind', 'Solar']"
WAUBRAWF,Waubra,-37.357979,143.5926,2025-10-24T13:25:00,1.3347,0.0,135.988,20607.03,VIC,['Wind']
WELLSF1,Wellington,-32.5207,148.9675,2025-10-24T13:25:00,0.0,0.0,135.988,20607.03,NSW,['Solar']
WEMENSF1,Wemen,-34.80259,142.543348,2025-10-24T13:25:00,0.0,0.0,135.988,20607.03,VIC,['Solar']
WGWF,Willogoleche,-33.393569,138.84821,2025-10-24T13:25:00,0.0,0.0,135.988,20607.03,SA,['Wind']
WHITSF,Whitsunday,-20.537259,147.80475,2025-10-24T13:25:00,0.0,0.0,135.988,20607.03,QLD,['Solar']
WINTSF1,Winton,-36.499695,146.114554,2025-10-24T13:25:00,0.0,0.0,135.988,20607.03,VIC,"['Solar', 'Solar']"
WIVENHOE,Wivenhoe,-27.372224,152.632362,2025-10-24T13:25:00,0.0,0.0,135.988,20607.03,QLD,['Hydro']
WKIEWA,West Kiewa,-36.759674,147.186082,2025-10-24T13:25:00,39.7,0.0,135.988,20607.03,VIC,['Hydro']
WOODLWN,Woodlawn,-35.081675,149.570511,2025-10-24T13:25:00,1.5777,0.0,135.988,20607.03,NSW,['Wind']
WOOLGSF,Woolooga,-26.084522,152.441226,2025-10-24T13:25:00,0.0,0.0,135.988,20607.03,QLD,['Solar']
WOOLNTH1,Woolnorth,-40.736375,144.694821,2025-10-24T13:25:00,82.59,0.0,135.988,20607.03,TAS,['Wind']
WPWF,Wattle Point,-35.11541,137.718672,2025-10-24T13:25:00,20.45,0.0,135.988,20607.03,SA,['Wind']
WRSF1,White Rock Solar Farm,-29.763292,151.552402,2025-10-24T13:25:00,0.0,0.0,135.988,20607.03,NSW,['Solar']
WRWF1,White Rock Wind Farm,-29.7718,151.5755,2025-10-24T13:25:00,1.1499,0.0,135.988,20607.03,NSW,['Wind']
WSTWYSF,West Wyalong,-33.795635,147.314545,2025-10-24T13:25:00,0.0,0.0,135.988,20607.03,NSW,['Solar']
WYASF,Wyalong,-33.804939,147.295155,2025-10-24T13:25:00,0.0,0.0,135.988,20607.03,NSW,['Solar']
YABULU,Townsville,-19.200374,146.618265,2025-10-24T13:25:00,0.0,0.0,135.988,20607.03,QLD,"['Gas', 'Coal Seam Methane', 'Solar', 'Solar']"
YARANSF,Yarranlea,-27.708939,151.532696,2025-10-24T13:25:00,0.0,0.0,135.988,20607.03,QLD,['Solar']
YSWF,Yaloak South,-37.716474,144.241947,2025-10-24T13:25:00,0.0,0.0,135.988,20607.03,VIC,['Wind']
0TARONGBESS,Tarong,-26.780051,151.912068,2025-10-24T13:30:00,0.0,0.0,149.73,20740.99,QLD,['Black Coal']
AGLHAL,Hallett,-33.34931,138.752633,2025-10-24T13:30:00,0.0,0.0,149.73,20740.99,SA,"['Wind', 'Gas/Diesel', 'Gas']"
AGLSOM,Somerton,-37.630949,144.953098,2025-10-24T13:30:00,60.95,5.7465,149.73,20740.99,VIC,['Gas']
ANGASTON,Angaston,-34.503948,139.024296,2025-10-24T13:30:00,0.0,0.0,149.73,20740.99,SA,"['Liquid Fuel', 'Diesel']"
AVLSF,Avonlie,-34.919115,146.60954,2025-10-24T13:30:00,0.0,0.0,149.73,20740.99,NSW,['Solar']
B2PS,Braemar 2,-27.109873,150.907653,2025-10-24T13:30:00,111.2039,10.2931,149.73,20740.99,QLD,['Coal Seam Methane']
BALBESS,Ballarat,-37.567452,143.852741,2025-10-24T13:30:00,0.0,0.0,149.73,20740.99,VIC,"['Landfill Gas', 'Solar', 'Solar', 'Solar']"
BANGOWF,Bango,-34.767208,148.921499,2025-10-24T13:30:00,0.6991,0.0,149.73,20740.99,NSW,['Wind']
BANNSP,Bannerton,-34.67263,142.750362,2025-10-24T13:30:00,0.0,0.0,149.73,20740.99,VIC,['Solar']
BARCALDN,Barcaldine,-23.552171,145.314851,2025-10-24T13:30:00,0.0,0.0,149.73,20740.99,QLD,"['Gas', 'Solar']"
BARCSF,Barcaldine,-23.547333,145.318972,2025-10-24T13:30:00,0.1,0.0,149.73,20740.99,QLD,"['Gas', 'Solar']"
BARKIPS,Barker Inlet,-34.804,138.524,2025-10-24T13:30:00,139.7,6.8169,149.73,20740.99,SA,['Gas']
BARRON,Barron Gorge,-16.85077,145.647049,2025-10-24T13:30:00,29.2,0.0,149.73,20740.99,QLD,['Hydro']
BASTYAN,Bastyan,-41.736231,145.531589,2025-10-24T13:30:00,0.0,0.0,149.73,20740.99,TAS,['Hydro']
BAYSW,Bayswater,-32.393502,150.953963,2025-10-24T13:30:00,1347.1397,97.7309,149.73,20740.99,NSW,['Black Coal']
BERYLSF,Beryl,-32.347501,149.460738,2025-10-24T13:30:00,0.0,0.0,149.73,20740.99,NSW,['Solar']
BHWF,Bald Hills,-38.758189,145.956062,2025-10-24T13:30:00,10.51,0.0,149.73,20740.99,VIC,['Wind']
BIALAWF,Biala,-34.587836,149.369848,2025-10-24T13:30:00,0.0,0.0,149.73,20740.99,NSW,['Wind']
BNGSF1,Bungala One,-32.423316,137.841798,2025-10-24T13:30:00,0.0,0.0,149.73,20740.99,SA,['Solar']
BNGSF2,Bungala Two,-32.406993,137.840933,2025-10-24T13:30:00,0.0,0.0,149.73,20740.99,SA,['Solar']
BOCOROCK,Boco Rock,-36.574527,149.124863,2025-10-24T13:30:00,4.25,0.0,149.73,20740.99,NSW,['Wind']
BODWF,Bodangora,-32.407128,149.04133,2025-10-24T13:30:00,3.3597,0.0,149.73,20740.99,NSW,['Wind']
BOLIVPS,Bolivar,-34.7772,138.5826,2025-10-24T13:30:00,31.78,2.1108,149.73,20740.99,SA,['Gas']
BOMENSF,Bomen,-35.0486,147.4439,2025-10-24T13:30:00,0.0,0.0,149.73,20740.99,NSW,['Solar']
BRAEMARA,Braemar,-27.111669,150.907647,2025-10-24T13:30:00,0.0,3.1653,149.73,20740.99,QLD,['Coal Seam Methane']
BROKENH,Broken Hill,-31.988905,141.391547,2025-10-24T13:30:00,0.0,0.0,149.73,20740.99,NSW,"['Solar', 'Diesel']"
BRYB1WF1,Berrybank,-37.980741,143.472217,2025-10-24T13:30:00,2.7955,0.0,149.73,20740.99,VIC,['Wind']
BUTLERSG,Butlers Gorge,-42.267107,146.262127,2025-10-24T13:30:00,11.1,0.0,149.73,20740.99,TAS,['Hydro']
BWTR1,Broadwater,-29.016483,153.445756,2025-10-24T13:30:00,0.0,0.0,149.73,20740.99,NSW,"['Bagasse', 'Wood']"
CALLIDEC1,Callide C,-24.347222,150.608611,2025-10-24T13:30:00,419.925,30.9785,149.73,20740.99,QLD,['Black Coal']
CALL_B,Callide B,-24.333169,150.626322,2025-10-24T13:30:00,680.4,54.0392,149.73,20740.99,QLD,['Black Coal']
CAPBES,Capital,-35.339434,149.216065,2025-10-24T13:30:00,0.52,0.0,149.73,20740.99,NSW,"['Solar', 'Wind', 'Solar', 'Solar']"
CAPTL_WF,Capital,-35.123534,149.500249,2025-10-24T13:30:00,0.0,0.0,149.73,20740.99,NSW,"['Solar', 'Wind', 'Solar', 'Solar']"
CATHROCK,Cathedral Rocks,-34.848741,135.592649,2025-10-24T13:30:00,30.7,0.0,149.73,20740.99,SA,['Wind']
CHALLWF,Challicum Hills,-37.395466,143.10459,2025-10-24T13:30:00,3.2,0.0,149.73,20740.99,VIC,['Wind']
CHBESS,Chinchilla,-26.918551,150.745399,2025-10-24T13:30:00,150.8314,0.0,149.73,20740.99,QLD,['Battery']
CHILDSF,Childers,-25.295027,152.403674,2025-10-24T13:30:00,0.0,0.0,149.73,20740.99,QLD,['Solar']
CHYTWF,Cherry Tree,-37.1018,145.2656,2025-10-24T13:30:00,0.0,0.0,149.73,20740.99,VIC,['Wind']
CLARESF,Clare,-19.83977,147.21055,2025-10-24T13:30:00,0.0,0.0,149.73,20740.99,QLD,"['Solar', 'Solar']"
CLERMSF,Clermont,-22.839406,147.546031,2025-10-24T13:30:00,0.0,0.0,149.73,20740.99,QLD,['Solar']
CLOVER,Clover,-36.78515,147.219517,2025-10-24T13:30:00,0.0,0.0,149.73,20740.99,VIC,['Hydro']
CLRKCWF,Clarke Creek,-22.850446,149.453252,2025-10-24T13:30:00,273.855,0.0,149.73,20740.99,QLD,"['Wind', 'Wind']"
COHUNSF1,Cohuna,-35.880317,144.221531,2025-10-24T13:30:00,0.0,0.0,149.73,20740.99,VIC,['Solar']
COLONGRA,Colongra,-33.208781,151.54354,2025-10-24T13:30:00,0.0,0.0,149.73,20740.99,NSW,['Gas']
COLUMSF,Columboola,-26.636088,150.28221,2025-10-24T13:30:00,0.0,0.0,149.73,20740.99,QLD,['Solar']
COLWF01,Collector,-34.823879,149.396795,2025-10-24T13:30:00,5.7694,0.0,149.73,20740.99,NSW,"['Solar', 'Wind']"
CONDONG1,Condong,-28.314766,153.433808,2025-10-24T13:30:00,22.83,0.0709,149.73,20740.99,NSW,"['Bagasse', 'Wood']"
CROOKWF2,Crookwell 2,-34.547676,149.589254,2025-10-24T13:30:00,0.0,0.0,149.73,20740.99,NSW,['Wind']
CROOKWF3,Crookwell 3,-34.484645,149.54447,2025-10-24T13:30:00,0.0,0.0,149.73,20740.99,NSW,['Wind']
CROWLWF,Crowlands,-36.97615,143.097998,2025-10-24T13:30:00,2.3853,0.0,149.73,20740.99,VIC,['Wind']
CSPVPS,Collinsville,-20.55714,147.820552,2025-10-24T13:30:00,0.0,0.0,149.73,20740.99,QLD,['Solar']
CTHLWF,Cattle Hill,-42.154845,146.694693,2025-10-24T13:30:00,116.8322,0.0,149.73,20740.99,TAS,['Wind']
CULLERIN,Cullerin Range,-34.750995,149.381027,2025-10-24T13:30:00,2.77,0.0,149.73,20740.99,NSW,['Wind']
DARLSF,Darlington Point,-34.644808,146.035756,2025-10-24T13:30:00,0.0,0.0,149.73,20740.99,NSW,['Solar']
DARTM,Dartmouth,-36.55529,147.519872,2025-10-24T13:30:00,0.0,0.0,149.73,20740.99,VIC,['Hydro']
DDPS1,Darling Downs,-27.116851,150.895391,2025-10-24T13:30:00,469.7566,19.6634,149.73,20740.99,QLD,"['Gas', 'Solar', 'Wind']"
DDSF,Darling Downs,-27.112,150.8819,2025-10-24T13:30:00,0.0,0.0,149.73,20740.99,QLD,"['Gas', 'Solar', 'Wind']"
DEIBDL,Bairnsdale,-37.842231,147.563725,2025-10-24T13:30:00,0.0,0.0,149.73,20740.99,VIC,['Gas']
DULAWF,Dulacca,-26.637485,149.870186,2025-10-24T13:30:00,170.1,0.0,149.73,20740.99,QLD,['Wind']
DUNDWF,Dundonnell,-37.863894,142.943454,2025-10-24T13:30:00,13.63,0.0,149.73,20740.99,VIC,['Wind']
EILDON,Eildon,-37.221262,145.920966,2025-10-24T13:30:00,93.28,0.0,149.73,20740.99,VIC,['Hydro']
EMERASF,Emerald,-23.50879,148.128017,2025-10-24T13:30:00,0.0,0.0,149.73,20740.99,QLD,"['Solar', 'Wind']"
ERARING,Eraring,-33.061548,151.524612,2025-10-24T13:30:00,1965.4353,145.8886,149.73,20740.99,NSW,"['Black Coal', 'Battery']"
ERB,Eraring,-33.066837,151.515026,2025-10-24T13:30:00,0.0,0.0,149.73,20740.99,NSW,"['Black Coal', 'Battery']"
ERGT01,Eraring,-33.062117,151.517224,2025-10-24T13:30:00,0.0,0.0,149.73,20740.99,NSW,"['Black Coal', 'Battery']"
FINLEYSF,Finley,-35.64421,145.508644,2025-10-24T13:30:00,0.0,0.0,149.73,20740.99,NSW,['Solar']
FISHER,Fisher,-41.672662,146.268739,2025-10-24T13:30:00,42.95,0.0,149.73,20740.99,TAS,['Hydro']
GANGARR,Gangarri,-26.254813,149.986704,2025-10-24T13:30:00,0.0,0.0,149.73,20740.99,QLD,['Solar']
GANNBESS,Gannawarra,-33.735056,143.779462,2025-10-24T13:30:00,0.369,0.0,149.73,20740.99,VIC,['Solar']
GANNSF,Gannawarra,-35.73,143.7711,2025-10-24T13:30:00,0.0,0.0,149.73,20740.99,VIC,['Solar']
GERMCRK,German Creek,-22.928526,148.549097,2025-10-24T13:30:00,16.616,0.8056000000000001,149.73,20740.99,QLD,['Waste Coal Mine Gas']
GIRGSF,Girgarre,-26.2548,149.9867,2025-10-24T13:30:00,0.0,0.0,149.73,20740.99,VIC,['Solar']
GLENSF,Glenrowan,-36.464,146.221,2025-10-24T13:30:00,0.0,0.0,149.73,20740.99,VIC,['Solar']
GLRWNSF,Glenrowan West,-36.488083,146.146887,2025-10-24T13:30:00,0.0,0.0,149.73,20740.99,VIC,['Solar']
GNNDHSF,Gunnedah,-30.965469,150.367917,2025-10-24T13:30:00,0.0,0.0,149.73,20740.99,NSW,"['Solar', 'Solar']"
GOONUMSF,Goonumbla,-33.106413,148.099274,2025-10-24T13:30:00,0.0,0.0,149.73,20740.99,NSW,['Solar']
GORDON,Gordon,-42.740157,145.983375,2025-10-24T13:30:00,24.4376,0.0,149.73,20740.99,TAS,['Hydro']
GRANWF,Granville Harbour,-41.802,145.056,2025-10-24T13:30:00,15.43,0.0,149.73,20740.99,TAS,['Wind']
GSTONE,Gladstone,-23.848741,151.220787,2025-10-24T13:30:00,1040.4981,81.989,149.73,20740.99,QLD,['Black Coal']
GUNNING,Gunning,-34.676361,149.66443,2025-10-24T13:30:00,0.0,0.0,149.73,20740.99,NSW,['Wind']
HAMISF,Hamilton,-20.468593,147.799484,2025-10-24T13:30:00,0.0,0.0,149.73,20740.99,NT,['Solar']
HAMISF,Hamilton,-20.468593,147.799484,2025-10-24T13:30:00,0.0,0.0,149.73,20740.99,QLD,['Solar']
HAUGHT1,Haughton,-19.732168,147.076137,2025-10-24T13:30:00,0.0,0.0,149.73,20740.99,QLD,['Solar']
HAYMSF,Hayman,-20.487516,147.744778,2025-10-24T13:30:00,0.0,0.0,149.73,20740.99,QLD,['Solar']
HD1WF,Hawkesdale,-38.148008,142.360925,2025-10-24T13:30:00,0.0,0.0,149.73,20740.99,VIC,['Wind']
HILLSTN,Hillston Sun,-33.532991,145.522279,2025-10-24T13:30:00,0.0,0.0,149.73,20740.99,NSW,['Solar']
HUMENSW,Hume,-36.106383,147.032263,2025-10-24T13:30:00,19.7386,0.0,149.73,20740.99,NSW,['Hydro']
HUMEV,Hume,-36.106887,147.032572,2025-10-24T13:30:00,0.0,0.0,149.73,20740.99,NSW,['Hydro']
JBUTTERS,John Butters,-42.15589,145.536508,2025-10-24T13:30:00,9.1754,0.0,149.73,20740.99,TAS,['Hydro']
JEMALNG1,Jemalong,-33.388764,147.669375,2025-10-24T13:30:00,0.0,0.0,149.73,20740.99,NSW,['Solar']
JUNEESF,Junee,-34.81124,147.572099,2025-10-24T13:30:00,0.0,0.0,149.73,20740.99,NSW,['Solar']
KAREEYA,Kareeya,-17.766456,145.576884,2025-10-24T13:30:00,86.1,0.0,149.73,20740.99,QLD,['Hydro']
KENNEDY,Kennedy Energy Park,-20.872792,144.413034,2025-10-24T13:30:00,39.4,0.0,149.73,20740.99,QLD,['Wind']
KIAMSF1,Kiamal,-35.018133,142.302953,2025-10-24T13:30:00,0.0,0.0,149.73,20740.99,VIC,"['Solar', 'Solar']"
KIATAWF,Kiata,-36.397693,141.746827,2025-10-24T13:30:00,5.4,0.0,149.73,20740.99,VIC,['Wind']
KOGANCK,Kogan Creek,-26.915285,150.748948,2025-10-24T13:30:00,0.0,11.1824,149.73,20740.99,QLD,['Black Coal']
KSP1,Kidston,-18.88,144.151,2025-10-24T13:30:00,0.0,0.0,149.73,20740.99,QLD,"['Solar', 'Solar', 'Hydro', 'Wind']"
LADBROKE,Ladbroke Grove,-37.456183,140.782699,2025-10-24T13:30:00,0.02,1.75,149.73,20740.99,SA,['Gas']
LBBESS,Lake Bonney,-37.738787,140.384672,2025-10-24T13:30:00,0.0,0.0,149.73,20740.99,SA,"['Wind', 'Battery']"
LGAPWF1,Lincoln Gap,-32.546333,137.552763,2025-10-24T13:30:00,53.05,0.0,149.73,20740.99,SA,['Wind']
LILYVASF,Lilyvale,-23.070504,148.413865,2025-10-24T13:30:00,0.0,0.0,149.73,20740.99,QLD,['Solar']
LIMBESS,Limondale,-34.769354,143.559464,2025-10-24T13:30:00,0.0,0.0,149.73,20740.99,NSW,['Solar']
LIMOSF1,Limondale,-34.775502,143.508046,2025-10-24T13:30:00,0.0,0.0,149.73,20740.99,NSW,['Solar']
LKBONNY1,Lake Bonney,-37.760504,140.405541,2025-10-24T13:30:00,6.1623,0.0,149.73,20740.99,SA,"['Wind', 'Battery']"
LK_ECHO,Lake Echo,-42.253339,146.620515,2025-10-24T13:30:00,0.0,0.0,149.73,20740.99,TAS,['Hydro']
LNGS,Laverton North,-37.841693,144.788006,2025-10-24T13:30:00,0.0,0.0,149.73,20740.99,VIC,['Gas']
LONSDALE,Lonsdale,-35.109718,138.490962,2025-10-24T13:30:00,0.0,0.0,149.73,20740.99,SA,['Diesel']
LOYYB,Loy Yang B,-38.253619,146.585593,2025-10-24T13:30:00,580.875,54.151,149.73,20740.99,VIC,['Brown Coal']
LRSF,Longreach,-23.455048,144.227917,2025-10-24T13:30:00,0.0,0.0,149.73,20740.99,QLD,['Solar']
MACARTH,Macarthur,-38.043483,142.179081,2025-10-24T13:30:00,0.8,0.0,149.73,20740.99,VIC,['Wind']
MACKNTSH,Mackintosh,-41.701363,145.646558,2025-10-24T13:30:00,0.0,0.0,149.73,20740.99,TAS,['Hydro']
MANSLR,Manildra,-33.172831,148.71824,2025-10-24T13:30:00,0.0,0.0,149.73,20740.99,NSW,['Solar']
MBAHNTH,Moranbah North,-21.978481,148.004809,2025-10-24T13:30:00,22.5,1.4563,149.73,20740.99,QLD,['Waste Coal Mine Gas']
MEADOWBK,Meadowbank,-42.610835,146.846388,2025-10-24T13:30:00,43.6417,0.0,149.73,20740.99,TAS,['Hydro']
MILLMERN,Millmerran,-27.961657,151.28091,2025-10-24T13:30:00,815.686,55.8455,149.73,20740.99,QLD,['Black Coal']
MINTARO,Mintaro,-33.903149,138.738797,2025-10-24T13:30:00,0.0854,0.0061,149.73,20740.99,SA,['Gas']
MLSP,Mugga Lane,-35.398441,149.14906,2025-10-24T13:30:00,0.0,0.0,149.73,20740.99,ACT,['Landfill Gas']
MLWF,Mortons Lane,-37.833186,142.465288,2025-10-24T13:30:00,0.39,0.0,149.73,20740.99,ACT,['Wind']
MLWF,Mortons Lane,-37.833186,142.465288,2025-10-24T13:30:00,0.39,0.0,149.73,20740.99,VIC,['Wind']
MOLNGSF1,Molong,-33.082578,148.900073,2025-10-24T13:30:00,0.0,0.0,149.73,20740.99,NSW,['Solar']
MOORAWF1,Moorabool,-37.739433,144.171985,2025-10-24T13:30:00,0.99,0.0,149.73,20740.99,VIC,['Wind']
MOREESF,Moree,-29.572607,149.861266,2025-10-24T13:30:00,0.0,0.0,149.73,20740.99,SA,['Solar']
MORTLK,Mortlake,-38.062628,142.66633,2025-10-24T13:30:00,271.0,18.7382,149.73,20740.99,VIC,"['Gas', 'Wind']"
MP,Mt Piper,-33.360715,150.035698,2025-10-24T13:30:00,1428.635,103.1974,149.73,20740.99,NSW,['Black Coal']
MRTLSWF,Mortlake South,-38.147965,142.882246,2025-10-24T13:30:00,0.0,0.0,149.73,20740.99,VIC,['Wind']
MSTUART,Mt Stuart,-19.337156,146.851239,2025-10-24T13:30:00,0.0,0.0,149.73,20740.99,QLD,"['Kerosene', 'Diesel']"
MTGELWF,Mt Gellibrand,-38.257657,143.798651,2025-10-24T13:30:00,0.0,0.0,149.73,20740.99,VIC,['Wind']
MTMERCER,Mt Mercer,-37.847593,143.870183,2025-10-24T13:30:00,3.8,0.0,149.73,20740.99,VIC,['Wind']
MTMILLAR,Mt Millar,-33.619342,136.717568,2025-10-24T13:30:00,16.3,0.0,149.73,20740.99,SA,['Wind']
MURRAY,Murray,-36.245992,148.188552,2025-10-24T13:30:00,700.3,0.0,149.73,20740.99,NT,['Diesel']
MUSSELRO,Musselroe,-40.777105,148.006315,2025-10-24T13:30:00,150.9,0.0,149.73,20740.99,TAS,['Wind']
MUWAWF,Murra Warra,-36.438821,142.246003,2025-10-24T13:30:00,34.35,0.0,149.73,20740.99,VIC,['Wind']
NEWENSF,New England,-30.627323,151.556425,2025-10-24T13:30:00,0.0,0.0,149.73,20740.99,NSW,"['Solar', 'Solar']"
NEWPORT,Newport,-37.841374,144.895479,2025-10-24T13:30:00,0.0,0.0,149.73,20740.99,VIC,['Gas']
NPPPPS,Pelican Point,-34.764365,138.505399,2025-10-24T13:30:00,148.0502,4.9909,149.73,20740.99,SA,['Gas']
NUMURKSF,Numurkah,-36.159275,145.473891,2025-10-24T13:30:00,0.0,0.0,149.73,20740.99,VIC,"['Solar', 'Solar']"
NYNGAN,Nyngan,-31.563191,147.074195,2025-10-24T13:30:00,0.0,0.0,149.73,20740.99,NSW,['Solar']
OAKEY,Oakey,-27.418207,151.678887,2025-10-24T13:30:00,0.0,0.0,149.73,20740.99,NSW,['Solar']
OAKEY2SF,Oakey 2,-27.402454,151.642576,2025-10-24T13:30:00,0.0,0.0,149.73,20740.99,QLD,['Solar']
OAKLAND,Oaklands Hill,-37.679481,142.552995,2025-10-24T13:30:00,0.0,0.0,149.73,20740.99,VIC,['Wind']
OSBORNE,Osborne,-34.7977,138.508099,2025-10-24T13:30:00,183.33,6.3362,149.73,20740.99,SA,"['Gas', 'Solar']"
PORTLCN,Port Lincoln,-34.700616,135.80453,2025-10-24T13:30:00,0.0,0.0,149.73,20740.99,SA,['Diesel']
PORTWF,Portland,-38.361417,141.38456,2025-10-24T13:30:00,0.6000000000000001,0.0,149.73,20740.99,VIC,['Wind']
PSF,Parkes,-33.113056,148.076372,2025-10-24T13:30:00,0.0015,0.0,149.73,20740.99,WA,"['Gas/Diesel', 'Gas']"
PTINA,Poatina,-41.805073,146.924365,2025-10-24T13:30:00,6.6792,0.0,149.73,20740.99,TAS,['Hydro']
QBYNB,Queanbeyan,-35.339311,149.215101,2025-10-24T13:30:00,0.0,0.0,149.73,20740.99,ACT,['Battery']
QUARANTN,Quarantine,-34.779074,138.522455,2025-10-24T13:30:00,0.0,3.7081,149.73,20740.99,SA,['Gas']
REECE,Reece,-41.723131,145.136468,2025-10-24T13:30:00,100.6713,0.0,149.73,20740.99,TAS,['Hydro']
REPULSE,Repulse,-42.507987,146.64717,2025-10-24T13:30:00,30.4283,0.0,149.73,20740.99,TAS,['Hydro']
ROMA,Roma,-26.576788,148.839485,2025-10-24T13:30:00,0.0,0.0,149.73,20740.99,QLD,['Gas']
ROWALLAN,Rowallan,-41.72957,146.218087,2025-10-24T13:30:00,0.0,0.0,149.73,20740.99,TAS,['Hydro']
ROYALLA,Royalla,-35.486052,149.141966,2025-10-24T13:30:00,0.0,0.0,149.73,20740.99,ACT,['Solar']
RRSF,Ross River,-19.425305,146.715686,2025-10-24T13:30:00,0.0,0.0,149.73,20740.99,QLD,['Solar']
RUBICON,Rubicon,-37.292453,145.818202,2025-10-24T13:30:00,0.495,0.0,149.73,20740.99,VIC,['Hydro']
RUGBYR,Rugby Run,-21.940469,147.880877,2025-10-24T13:30:00,0.0,0.0,149.73,20740.99,QLD,['Solar']
RYEPARK,Rye Park,-34.63317,148.95364,2025-10-24T13:30:00,6.6075,0.0,149.73,20740.99,NSW,['Wind']
SALTCRK,Salt Creek,-37.918698,142.796027,2025-10-24T13:30:00,1.48,0.0,149.73,20740.99,VIC,['Wind']
SAPHWF1,Sapphire,-29.710273,151.44558,2025-10-24T13:30:00,1.9547,0.0,149.73,20740.99,NSW,"['Wind', 'Solar']"
SEBSF,Sebastopol,-34.603287,147.554757,2025-10-24T13:30:00,0.0,0.0,149.73,20740.99,NSW,['Solar']
SHOALHAV,Shoalhaven,-34.733085,150.4667,2025-10-24T13:30:00,0.0,0.0,149.73,20740.99,NSW,"['Landfill Gas', 'Hydro', 'Solar', 'Solar']"
SMTHBES1,Smithfield,-33.849972,150.947448,2025-10-24T13:30:00,0.0,0.0,149.73,20740.99,NSW,['Gas']
SNAPPER,Snapper Point,-34.76452,138.50819,2025-10-24T13:30:00,0.0,0.0,149.73,20740.99,SA,"['Diesel', 'Gas']"
SNOWSTH,Snowtown South,-33.862624,138.130367,2025-10-24T13:30:00,32.6,0.0,149.73,20740.99,SA,['Wind']
SNOWTOWN,Snowtown,-33.691598,138.166022,2025-10-24T13:30:00,22.5317,0.0,149.73,20740.99,SA,"['Wind', 'Solar']"
SNUG,Snuggery,-37.664996,140.414686,2025-10-24T13:30:00,0.0,0.0,149.73,20740.99,SA,['Diesel']
SRSF,Susan River,-25.420275,152.742028,2025-10-24T13:30:00,0.0,0.0,149.73,20740.99,QLD,['Solar']
STANWELL,Stanwell,-23.507501,150.317884,2025-10-24T13:30:00,1125.8771,91.5434,149.73,20740.99,QLD,['Black Coal']
STARFHILL,Starfish Hill,-35.578983,138.139653,2025-10-24T13:30:00,7.6978,0.0,149.73,20740.99,SA,['Wind']
SUNRSF1,Sunraysia,-34.821489,143.50916,2025-10-24T13:30:00,0.0,0.0,149.73,20740.99,NSW,['Solar']
SUNTPSF,Suntop,-32.5742,148.860469,2025-10-24T13:30:00,0.0,0.0,149.73,20740.99,NSW,['Solar']
SWAN_E,Swanbank E,-27.655286,152.818644,2025-10-24T13:30:00,110.0731,7.5925,149.73,20740.99,QLD,['Gas']
TALLAWAR,Tallawarra,-34.523089,150.808566,2025-10-24T13:30:00,0.0,0.0,149.73,20740.99,NSW,['Gas']
TARALGA,Taralga,-34.425387,149.859603,2025-10-24T13:30:00,0.0,0.0,149.73,20740.99,NSW,['Wind']
TARONG,Tarong,-26.774397,151.917838,2025-10-24T13:30:00,919.1,69.47,149.73,20740.99,QLD,['Black Coal']
TARRALEA,Tarraleah,-42.301736,146.456661,2025-10-24T13:30:00,27.8,0.0,149.73,20740.99,TAS,['Hydro']
TB2SF,Tailem Bend 2,-35.28,139.49,2025-10-24T13:30:00,34.043,0.0,149.73,20740.99,SA,['Solar']
TBSF,Tailem Bend,-35.28,139.49,2025-10-24T13:30:00,0.0,0.0,149.73,20740.99,SA,['Solar']
TIB,Torrens Island,-34.805831,138.524192,2025-10-24T13:30:00,2.68,0.0,149.73,20740.99,SA,"['Gas/Diesel', 'Gas']"
TREVALLN,Trevallyn,-41.422302,147.112025,2025-10-24T13:30:00,95.3129,0.0,149.73,20740.99,TAS,['Hydro']
TRIBUTE,Tribute,-41.811468,145.653252,2025-10-24T13:30:00,47.14,0.0,149.73,20740.99,TAS,['Hydro']
TUNGATIN,Tungatinah,-42.296396,146.455881,2025-10-24T13:30:00,97.57,0.0,149.73,20740.99,TAS,['Hydro']
TVCCPS,Tamar Valley,-41.139268,146.906185,2025-10-24T13:30:00,0.0,0.0,149.73,20740.99,TAS,['Gas']
URANQ,Uranquinty,-35.180226,147.21566,2025-10-24T13:30:00,149.7002,7.0386,149.73,20740.99,NSW,['Gas']
WAGGNSF,Wagga North,-35.069081,147.438227,2025-10-24T13:30:00,0.0,0.0,149.73,20740.99,NSW,['Solar']
WANDSF,Wandoan,-26.263564,149.772243,2025-10-24T13:30:00,0.0,0.0,149.73,20740.99,QLD,"['Solar', 'Solar']"
WARWSF,Warwick,-28.18321,152.066792,2025-10-24T13:30:00,0.0,0.0,149.73,20740.99,QLD,['Solar']
WATERLWF,Waterloo,-33.991095,138.915723,2025-10-24T13:30:00,15.5,0.0,149.73,20740.99,SA,"['Wind', 'Solar']"
WAUBRAWF,Waubra,-37.357979,143.5926,2025-10-24T13:30:00,0.0,0.0,149.73,20740.99,VIC,['Wind']
WELLSF1,Wellington,-32.5207,148.9675,2025-10-24T13:30:00,0.0,0.0,149.73,20740.99,NSW,['Solar']
WEMENSF1,Wemen,-34.80259,142.543348,2025-10-24T13:30:00,0.0,0.0,149.73,20740.99,VIC,['Solar']
WGWF,Willogoleche,-33.393569,138.84821,2025-10-24T13:30:00,0.3,0.0,149.73,20740.99,SA,['Wind']
WHITSF,Whitsunday,-20.537259,147.80475,2025-10-24T13:30:00,0.0,0.0,149.73,20740.99,QLD,['Solar']
WINTSF1,Winton,-36.499695,146.114554,2025-10-24T13:30:00,0.17,0.0,149.73,20740.99,VIC,"['Solar', 'Solar']"
WIVENHOE,Wivenhoe,-27.372224,152.632362,2025-10-24T13:30:00,0.0,0.0,149.73,20740.99,QLD,['Hydro']
WKIEWA,West Kiewa,-36.759674,147.186082,2025-10-24T13:30:00,40.3,0.0,149.73,20740.99,VIC,['Hydro']
WOODLWN,Woodlawn,-35.081675,149.570511,2025-10-24T13:30:00,2.0083,0.0,149.73,20740.99,NSW,['Wind']
WOOLGSF,Woolooga,-26.084522,152.441226,2025-10-24T13:30:00,0.0,0.0,149.73,20740.99,QLD,['Solar']
WOOLNTH1,Woolnorth,-40.736375,144.694821,2025-10-24T13:30:00,80.61,0.0,149.73,20740.99,TAS,['Wind']
WPWF,Wattle Point,-35.11541,137.718672,2025-10-24T13:30:00,16.36,0.0,149.73,20740.99,SA,['Wind']
WRSF1,White Rock Solar Farm,-29.763292,151.552402,2025-10-24T13:30:00,0.0,0.0,149.73,20740.99,NSW,['Solar']
WRWF1,White Rock Wind Farm,-29.7718,151.5755,2025-10-24T13:30:00,2.204,0.0,149.73,20740.99,NSW,['Wind']
WSTWYSF,West Wyalong,-33.795635,147.314545,2025-10-24T13:30:00,0.0,0.0,149.73,20740.99,NSW,['Solar']
YABULU,Townsville,-19.200374,146.618265,2025-10-24T13:30:00,0.0,0.0,149.73,20740.99,QLD,"['Gas', 'Coal Seam Methane', 'Solar', 'Solar']"
YAMBUK,Yambuk,-38.305278,142.018439,2025-10-24T13:30:00,0.0,0.0,149.73,20740.99,VIC,['Wind']
YARANSF,Yarranlea,-27.708939,151.532696,2025-10-24T13:30:00,0.0,0.0,149.73,20740.99,QLD,['Solar']
0TARONGBESS,Tarong,-26.780051,151.912068,2025-10-24T13:35:00,0.0,0.0,134.886,20647.86,QLD,['Black Coal']
AGLHAL,Hallett,-33.34931,138.752633,2025-10-24T13:35:00,0.0,0.0,134.886,20647.86,SA,"['Wind', 'Gas/Diesel', 'Gas']"
AGLSOM,Somerton,-37.630949,144.953098,2025-10-24T13:35:00,59.45,5.7003,134.886,20647.86,VIC,['Gas']
ANGASTON,Angaston,-34.503948,139.024296,2025-10-24T13:35:00,0.0,0.0,134.886,20647.86,SA,"['Liquid Fuel', 'Diesel']"
AVLSF,Avonlie,-34.919115,146.60954,2025-10-24T13:35:00,0.0,0.0,134.886,20647.86,NSW,['Solar']
BALBESS,Ballarat,-37.567452,143.852741,2025-10-24T13:35:00,0.0,0.0,134.886,20647.86,VIC,"['Landfill Gas', 'Solar', 'Solar', 'Solar']"
BANGOWF,Bango,-34.767208,148.921499,2025-10-24T13:35:00,0.0,0.0,134.886,20647.86,NSW,['Wind']
BANNSP,Bannerton,-34.67263,142.750362,2025-10-24T13:35:00,0.0,0.0,134.886,20647.86,VIC,['Solar']
BARCALDN,Barcaldine,-23.552171,145.314851,2025-10-24T13:35:00,0.0,0.0,134.886,20647.86,QLD,"['Gas', 'Solar']"
BARKIPS,Barker Inlet,-34.804,138.524,2025-10-24T13:35:00,139.12,6.8027,134.886,20647.86,SA,['Gas']
BARRON,Barron Gorge,-16.85077,145.647049,2025-10-24T13:35:00,29.0425,0.0,134.886,20647.86,QLD,['Hydro']
BASTYAN,Bastyan,-41.736231,145.531589,2025-10-24T13:35:00,0.0,0.0,134.886,20647.86,TAS,['Hydro']
BAYSW,Bayswater,-32.393502,150.953963,2025-10-24T13:35:00,1340.9872,97.5022,134.886,20647.86,NSW,['Black Coal']
BERYLSF,Beryl,-32.347501,149.460738,2025-10-24T13:35:00,0.0,0.0,134.886,20647.86,NSW,['Solar']
BHILLGT,Broken Hill,-31.986313,141.42062,2025-10-24T13:35:00,0.0,0.0,134.886,20647.86,NSW,"['Solar', 'Diesel']"
BHWF,Bald Hills,-38.758189,145.956062,2025-10-24T13:35:00,11.271,0.0,134.886,20647.86,VIC,['Wind']
BIALAWF,Biala,-34.587836,149.369848,2025-10-24T13:35:00,0.0,0.0,134.886,20647.86,NSW,['Wind']
BNGSF1,Bungala One,-32.423316,137.841798,2025-10-24T13:35:00,0.0,0.0,134.886,20647.86,SA,['Solar']
BOCOROCK,Boco Rock,-36.574527,149.124863,2025-10-24T13:35:00,3.46,0.0,134.886,20647.86,NSW,['Wind']
BODWF,Bodangora,-32.407128,149.04133,2025-10-24T13:35:00,4.177,0.0,134.886,20647.86,NSW,['Wind']
BOLIVAR,Bolivar,-34.495482,138.387641,2025-10-24T13:35:00,0.0,0.0,134.886,20647.86,SA,['Gas']
BOLIVPS,Bolivar,-34.7772,138.5826,2025-10-24T13:35:00,31.78,2.1108,134.886,20647.86,SA,['Gas']
BRAEMARA,Braemar,-27.111669,150.907647,2025-10-24T13:35:00,0.0,3.1653,134.886,20647.86,QLD,['Coal Seam Methane']
BROKENH,Broken Hill,-31.988905,141.391547,2025-10-24T13:35:00,0.0,0.0,134.886,20647.86,NSW,"['Solar', 'Diesel']"
BRYB1WF1,Berrybank,-37.980741,143.472217,2025-10-24T13:35:00,3.6744,0.0,134.886,20647.86,VIC,['Wind']
BUTLERSG,Butlers Gorge,-42.267107,146.262127,2025-10-24T13:35:00,11.0,0.0,134.886,20647.86,TAS,['Hydro']
CALLIDEC1,Callide C,-24.347222,150.608611,2025-10-24T13:35:00,419.375,30.9582,134.886,20647.86,QLD,['Black Coal']
CALL_B,Callide B,-24.333169,150.626322,2025-10-24T13:35:00,678.0,53.9437,134.886,20647.86,QLD,['Black Coal']
CANUNDA1,Canunda,-37.698303,140.383633,2025-10-24T13:35:00,4.4051,0.0,134.886,20647.86,SA,['Wind']
CAPBES,Capital,-35.339434,149.216065,2025-10-24T13:35:00,0.0,0.0,134.886,20647.86,NSW,"['Solar', 'Wind', 'Solar', 'Solar']"
CATHROCK,Cathedral Rocks,-34.848741,135.592649,2025-10-24T13:35:00,25.1,0.0,134.886,20647.86,SA,['Wind']
CETHANA,Cethana,-41.479852,146.134472,2025-10-24T13:35:00,73.2166,0.0,134.886,20647.86,TAS,['Hydro']
CHALLWF,Challicum Hills,-37.395466,143.10459,2025-10-24T13:35:00,2.7,0.0,134.886,20647.86,VIC,['Wind']
CHBESS,Chinchilla,-26.918551,150.745399,2025-10-24T13:35:00,149.3758,0.0,134.886,20647.86,QLD,['Battery']
CHYTWF,Cherry Tree,-37.1018,145.2656,2025-10-24T13:35:00,0.0,0.0,134.886,20647.86,VIC,['Wind']
CLARESF,Clare,-19.83977,147.21055,2025-10-24T13:35:00,0.0,0.0,134.886,20647.86,QLD,"['Solar', 'Solar']"
CLEMGPWF,Clements Gap,-33.489773,138.111695,2025-10-24T13:35:00,8.7883,0.0,134.886,20647.86,SA,['Wind']
CLOVER,Clover,-36.78515,147.219517,2025-10-24T13:35:00,0.0,0.0,134.886,20647.86,VIC,['Hydro']
CLRKCWF,Clarke Creek,-22.850446,149.453252,2025-10-24T13:35:00,269.5029,0.0,134.886,20647.86,QLD,"['Wind', 'Wind']"
CLUNY,Cluny,-42.506229,146.681123,2025-10-24T13:35:00,17.9496,0.0,134.886,20647.86,TAS,['Hydro']
COHUNSF1,Cohuna,-35.880317,144.221531,2025-10-24T13:35:00,0.0,0.0,134.886,20647.86,VIC,['Solar']
COLONGRA,Colongra,-33.208781,151.54354,2025-10-24T13:35:00,0.0,0.0,134.886,20647.86,NSW,['Gas']
COLWF01,Collector,-34.823879,149.396795,2025-10-24T13:35:00,5.4108,0.0,134.886,20647.86,NSW,"['Solar', 'Wind']"
CONDONG1,Condong,-28.314766,153.433808,2025-10-24T13:35:00,22.95,0.071,134.886,20647.86,NSW,"['Bagasse', 'Wood']"
COOPGWF,Coopers Gap,-26.717004,151.449177,2025-10-24T13:35:00,233.48,0.0,134.886,20647.86,QLD,['Wind']
CROOKWF2,Crookwell 2,-34.547676,149.589254,2025-10-24T13:35:00,0.0,0.0,134.886,20647.86,NSW,['Wind']
CROOKWF3,Crookwell 3,-34.484645,149.54447,2025-10-24T13:35:00,0.0,0.0,134.886,20647.86,NSW,['Wind']
CROWLWF,Crowlands,-36.97615,143.097998,2025-10-24T13:35:00,2.1053,0.0,134.886,20647.86,VIC,['Wind']
CRURWF1,Crudine Ridge,-32.864748,149.81297,2025-10-24T13:35:00,0.9979,0.0,134.886,20647.86,NSW,['Wind']
CRWASF1,Corowa,-35.98629,146.361456,2025-10-24T13:35:00,0.0,0.0,134.886,20647.86,NSW,['Solar']
CTHLWF,Cattle Hill,-42.154845,146.694693,2025-10-24T13:35:00,117.4609,0.0,134.886,20647.86,TAS,['Wind']
CULLERIN,Cullerin Range,-34.750995,149.381027,2025-10-24T13:35:00,2.45,0.0,134.886,20647.86,NSW,['Wind']
DARLSF,Darlington Point,-34.644808,146.035756,2025-10-24T13:35:00,0.0,0.0,134.886,20647.86,NSW,['Solar']
DARTM,Dartmouth,-36.55529,147.519872,2025-10-24T13:35:00,0.0,0.0,134.886,20647.86,VIC,['Hydro']
DDPS1,Darling Downs,-27.116851,150.895391,2025-10-24T13:35:00,462.4854,19.5317,134.886,20647.86,QLD,"['Gas', 'Solar', 'Wind']"
DDSF,Darling Downs,-27.112,150.8819,2025-10-24T13:35:00,0.0,0.0,134.886,20647.86,QLD,"['Gas', 'Solar', 'Wind']"
DEIBDL,Bairnsdale,-37.842231,147.563725,2025-10-24T13:35:00,0.0,0.0,134.886,20647.86,VIC,['Gas']
DRYCGT,Dry Creek,-34.847293,138.582297,2025-10-24T13:35:00,0.0,0.0,134.886,20647.86,SA,"['Gas', 'Solar']"
DULAWF,Dulacca,-26.637485,149.870186,2025-10-24T13:35:00,171.0,0.0,134.886,20647.86,QLD,['Wind']
EILDON,Eildon,-37.221262,145.920966,2025-10-24T13:35:00,93.16,0.0,134.886,20647.86,VIC,['Hydro']
EMERASF,Emerald,-23.50879,148.128017,2025-10-24T13:35:00,0.0,0.0,134.886,20647.86,QLD,"['Solar', 'Wind']"
ERARING,Eraring,-33.061548,151.524612,2025-10-24T13:35:00,1961.7244,145.7517,134.886,20647.86,NSW,"['Black Coal', 'Battery']"
ERB,Eraring,-33.066837,151.515026,2025-10-24T13:35:00,0.0,0.0,134.886,20647.86,NSW,"['Black Coal', 'Battery']"
ERGT01,Eraring,-33.062117,151.517224,2025-10-24T13:35:00,0.0,0.0,134.886,20647.86,NSW,"['Black Coal', 'Battery']"
FINLEYSF,Finley,-35.64421,145.508644,2025-10-24T13:35:00,0.0,0.0,134.886,20647.86,NSW,['Solar']
FISHER,Fisher,-41.672662,146.268739,2025-10-24T13:35:00,42.6,0.0,134.886,20647.86,TAS,['Hydro']
GANGARR,Gangarri,-26.254813,149.986704,2025-10-24T13:35:00,0.0,0.0,134.886,20647.86,QLD,['Solar']
GANNBESS,Gannawarra,-33.735056,143.779462,2025-10-24T13:35:00,0.0,0.0,134.886,20647.86,VIC,['Solar']
GERMCRK,German Creek,-22.928526,148.549097,2025-10-24T13:35:00,17.904,0.8359000000000001,134.886,20647.86,QLD,['Waste Coal Mine Gas']
GIRGSF,Girgarre,-26.2548,149.9867,2025-10-24T13:35:00,0.0,0.0,134.886,20647.86,VIC,['Solar']
GLENSF,Glenrowan,-36.464,146.221,2025-10-24T13:35:00,0.0,0.0,134.886,20647.86,VIC,['Solar']
GLRWNSF,Glenrowan West,-36.488083,146.146887,2025-10-24T13:35:00,0.0,0.0,134.886,20647.86,VIC,['Solar']
GNNDHSF,Gunnedah,-30.965469,150.367917,2025-10-24T13:35:00,0.0,0.0,134.886,20647.86,NSW,"['Solar', 'Solar']"
GOONUMSF,Goonumbla,-33.106413,148.099274,2025-10-24T13:35:00,0.0,0.0,134.886,20647.86,NSW,['Solar']
GORDON,Gordon,-42.740157,145.983375,2025-10-24T13:35:00,21.4932,0.0,134.886,20647.86,TAS,['Hydro']
GRANWF,Granville Harbour,-41.802,145.056,2025-10-24T13:35:00,12.55,0.0,134.886,20647.86,TAS,['Wind']
GSTONE,Gladstone,-23.848741,151.220787,2025-10-24T13:35:00,1040.1495,81.975,134.886,20647.86,QLD,['Black Coal']
GULLRGWF,Gullen Range,-34.624512,149.458549,2025-10-24T13:35:00,0.0,0.0,134.886,20647.86,NSW,['Wind']
GUNNING,Gunning,-34.676361,149.66443,2025-10-24T13:35:00,0.0,0.0,134.886,20647.86,NSW,['Wind']
HAMISF,Hamilton,-20.468593,147.799484,2025-10-24T13:35:00,0.0,0.0,134.886,20647.86,NT,['Solar']
HAMISF,Hamilton,-20.468593,147.799484,2025-10-24T13:35:00,0.0,0.0,134.886,20647.86,QLD,['Solar']
HAUGHT1,Haughton,-19.732168,147.076137,2025-10-24T13:35:00,0.0,0.0,134.886,20647.86,QLD,['Solar']
HAYMSF,Hayman,-20.487516,147.744778,2025-10-24T13:35:00,0.0,0.0,134.886,20647.86,QLD,['Solar']
HD1WF,Hawkesdale,-38.148008,142.360925,2025-10-24T13:35:00,0.0,0.0,134.886,20647.86,VIC,['Wind']
HILLSTN,Hillston Sun,-33.532991,145.522279,2025-10-24T13:35:00,0.0,0.0,134.886,20647.86,NSW,['Solar']
HUMENSW,Hume,-36.106383,147.032263,2025-10-24T13:35:00,20.1785,0.0,134.886,20647.86,NSW,['Hydro']
HUMEV,Hume,-36.106887,147.032572,2025-10-24T13:35:00,0.0,0.0,134.886,20647.86,NSW,['Hydro']
HUNTER,Hunter,-32.793406,151.478353,2025-10-24T13:35:00,0.0,0.0,134.886,20647.86,NSW,['Gas']
JBUTTERS,John Butters,-42.15589,145.536508,2025-10-24T13:35:00,6.9483,0.0,134.886,20647.86,TAS,['Hydro']
JEMALNG1,Jemalong,-33.388764,147.669375,2025-10-24T13:35:00,0.0,0.0,134.886,20647.86,NSW,['Solar']
JUNEESF,Junee,-34.81124,147.572099,2025-10-24T13:35:00,0.0,0.0,134.886,20647.86,NSW,['Solar']
KAREEYA,Kareeya,-17.766456,145.576884,2025-10-24T13:35:00,85.9475,0.0,134.886,20647.86,QLD,['Hydro']
KENNEDY,Kennedy Energy Park,-20.872792,144.413034,2025-10-24T13:35:00,37.4,0.0,134.886,20647.86,QLD,['Wind']
KIAMSF1,Kiamal,-35.018133,142.302953,2025-10-24T13:35:00,0.0,0.0,134.886,20647.86,VIC,"['Solar', 'Solar']"
KIATAWF,Kiata,-36.397693,141.746827,2025-10-24T13:35:00,6.5,0.0,134.886,20647.86,VIC,['Wind']
KOGANCK,Kogan Creek,-26.915285,150.748948,2025-10-24T13:35:00,0.0,11.1824,134.886,20647.86,QLD,['Black Coal']
KSP1,Kidston,-18.88,144.151,2025-10-24T13:35:00,0.0,0.0,134.886,20647.86,QLD,"['Solar', 'Solar', 'Hydro', 'Wind']"
LADBROKE,Ladbroke Grove,-37.456183,140.782699,2025-10-24T13:35:00,0.02,1.75,134.886,20647.86,SA,['Gas']
LBBESS,Lake Bonney,-37.738787,140.384672,2025-10-24T13:35:00,0.0,0.0,134.886,20647.86,SA,"['Wind', 'Battery']"
LGAPWF1,Lincoln Gap,-32.546333,137.552763,2025-10-24T13:35:00,52.32,0.0,134.886,20647.86,SA,['Wind']
LILYVASF,Lilyvale,-23.070504,148.413865,2025-10-24T13:35:00,0.0,0.0,134.886,20647.86,QLD,['Solar']
LIMBESS,Limondale,-34.769354,143.559464,2025-10-24T13:35:00,0.0,0.0,134.886,20647.86,NSW,['Solar']
LIMOSF1,Limondale,-34.775502,143.508046,2025-10-24T13:35:00,0.0,0.0,134.886,20647.86,NSW,['Solar']
LNGS,Laverton North,-37.841693,144.788006,2025-10-24T13:35:00,0.0,0.0,134.886,20647.86,VIC,['Gas']
LONSDALE,Lonsdale,-35.109718,138.490962,2025-10-24T13:35:00,0.0,0.0,134.886,20647.86,SA,['Diesel']
LOYYB,Loy Yang B,-38.253619,146.585593,2025-10-24T13:35:00,577.875,54.0107,134.886,20647.86,VIC,['Brown Coal']
LRSF,Longreach,-23.455048,144.227917,2025-10-24T13:35:00,0.0,0.0,134.886,20647.86,QLD,['Solar']
MACARTH,Macarthur,-38.043483,142.179081,2025-10-24T13:35:00,0.3,0.0,134.886,20647.86,VIC,['Wind']
MACKNTSH,Mackintosh,-41.701363,145.646558,2025-10-24T13:35:00,0.0,0.0,134.886,20647.86,TAS,['Hydro']
MANSLR,Manildra,-33.172831,148.71824,2025-10-24T13:35:00,0.0,0.0,134.886,20647.86,NSW,['Solar']
MARYRSF,Maryrorough,-27.708973,151.546869,2025-10-24T13:35:00,0.0,0.0,134.886,20647.86,QLD,['Solar']
MBAHNTH,Moranbah North,-21.978481,148.004809,2025-10-24T13:35:00,21.1,1.4191,134.886,20647.86,QLD,['Waste Coal Mine Gas']
MILLMERN,Millmerran,-27.961657,151.28091,2025-10-24T13:35:00,815.6096,55.8429,134.886,20647.86,QLD,['Black Coal']
MINTARO,Mintaro,-33.903149,138.738797,2025-10-24T13:35:00,0.0854,0.0061,134.886,20647.86,SA,['Gas']
MLSP,Mugga Lane,-35.398441,149.14906,2025-10-24T13:35:00,0.0,0.0,134.886,20647.86,ACT,['Landfill Gas']
MLWF,Mortons Lane,-37.833186,142.465288,2025-10-24T13:35:00,0.555,0.0,134.886,20647.86,VIC,['Wind']
MOLNGSF1,Molong,-33.082578,148.900073,2025-10-24T13:35:00,0.0,0.0,134.886,20647.86,NSW,['Solar']
MOORAWF1,Moorabool,-37.739433,144.171985,2025-10-24T13:35:00,1.61,0.0,134.886,20647.86,VIC,['Wind']
MOREESF,Moree,-29.572607,149.861266,2025-10-24T13:35:00,0.0,0.0,134.886,20647.86,NSW,['Solar']
MOREESF,Moree,-29.572607,149.861266,2025-10-24T13:35:00,0.0,0.0,134.886,20647.86,SA,['Solar']
MP,Mt Piper,-33.360715,150.035698,2025-10-24T13:35:00,1425.3147,103.0773,134.886,20647.86,NSW,['Black Coal']
MRTLSWF,Mortlake South,-38.147965,142.882246,2025-10-24T13:35:00,0.0,0.0,134.886,20647.86,VIC,['Wind']
MSTUART,Mt Stuart,-19.337156,146.851239,2025-10-24T13:35:00,0.0,0.0,134.886,20647.86,QLD,"['Kerosene', 'Diesel']"
MTGELWF,Mt Gellibrand,-38.257657,143.798651,2025-10-24T13:35:00,0.0,0.0,134.886,20647.86,VIC,['Wind']
MTMERCER,Mt Mercer,-37.847593,143.870183,2025-10-24T13:35:00,2.6,0.0,134.886,20647.86,VIC,['Wind']
MTMILLAR,Mt Millar,-33.619342,136.717568,2025-10-24T13:35:00,16.3,0.0,134.886,20647.86,SA,['Wind']
MURRAY,Murray,-36.245992,148.188552,2025-10-24T13:35:00,775.6,0.0,134.886,20647.86,NT,['Diesel']
MURRAY,Murray,-36.245992,148.188552,2025-10-24T13:35:00,775.6,0.0,134.886,20647.86,QLD,['Diesel']
MUSSELRO,Musselroe,-40.777105,148.006315,2025-10-24T13:35:00,150.5,0.0,134.886,20647.86,TAS,['Wind']
MUWAWF,Murra Warra,-36.438821,142.246003,2025-10-24T13:35:00,41.87,0.0,134.886,20647.86,VIC,['Wind']
NEVERSF,Nevertire,-31.831044,147.705178,2025-10-24T13:35:00,0.0,0.0,134.886,20647.86,NSW,['Solar']
NEWENSF,New England,-30.627323,151.556425,2025-10-24T13:35:00,0.0,0.0,134.886,20647.86,NSW,"['Solar', 'Solar']"
NEWPORT,Newport,-37.841374,144.895479,2025-10-24T13:35:00,0.0,0.0,134.886,20647.86,VIC,['Gas']
NPPPPS,Pelican Point,-34.764365,138.505399,2025-10-24T13:35:00,148.7213,5.0022,134.886,20647.86,SA,['Gas']
NUMURKSF,Numurkah,-36.159275,145.473891,2025-10-24T13:35:00,0.0,0.0,134.886,20647.86,VIC,"['Solar', 'Solar']"
NYNGAN,Nyngan,-31.563191,147.074195,2025-10-24T13:35:00,0.0,0.0,134.886,20647.86,NSW,['Solar']
OAKEY,Oakey,-27.418207,151.678887,2025-10-24T13:35:00,0.0,0.0,134.886,20647.86,NSW,['Solar']
OAKEY,Oakey,-27.418207,151.678887,2025-10-24T13:35:00,0.0,0.0,134.886,20647.86,QLD,"['Gas', 'Solar']"
OAKEY2SF,Oakey 2,-27.402454,151.642576,2025-10-24T13:35:00,0.0,0.0,134.886,20647.86,QLD,['Solar']
OAKLAND,Oaklands Hill,-37.679481,142.552995,2025-10-24T13:35:00,0.0,0.0,134.886,20647.86,VIC,['Wind']
OSBORNE,Osborne,-34.7977,138.508099,2025-10-24T13:35:00,183.51,6.3393,134.886,20647.86,SA,"['Gas', 'Solar']"
PALOONA,Paloona,-41.28268,146.24858,2025-10-24T13:35:00,29.52,0.0,134.886,20647.86,TAS,['Hydro']
PORTLCN,Port Lincoln,-34.700616,135.80453,2025-10-24T13:35:00,0.0,0.0,134.886,20647.86,SA,['Diesel']
PSF,Parkes,-33.113056,148.076372,2025-10-24T13:35:00,0.0015,0.0,134.886,20647.86,WA,"['Gas/Diesel', 'Gas']"
PTINA,Poatina,-41.805073,146.924365,2025-10-24T13:35:00,6.2714,0.0,134.886,20647.86,TAS,['Hydro']
QBYNB,Queanbeyan,-35.339311,149.215101,2025-10-24T13:35:00,0.0,0.0,134.886,20647.86,ACT,['Battery']
QUARANTN,Quarantine,-34.779074,138.522455,2025-10-24T13:35:00,0.0,3.7081,134.886,20647.86,SA,['Gas']
REPULSE,Repulse,-42.507987,146.64717,2025-10-24T13:35:00,29.9962,0.0,134.886,20647.86,TAS,['Hydro']
ROMA,Roma,-26.576788,148.839485,2025-10-24T13:35:00,0.0,0.0,134.886,20647.86,QLD,['Gas']
ROWALLAN,Rowallan,-41.72957,146.218087,2025-10-24T13:35:00,0.0,0.0,134.886,20647.86,TAS,['Hydro']
ROYALLA,Royalla,-35.486052,149.141966,2025-10-24T13:35:00,0.0,0.0,134.886,20647.86,ACT,['Solar']
RUBICON,Rubicon,-37.292453,145.818202,2025-10-24T13:35:00,0.495,0.0,134.886,20647.86,VIC,['Hydro']
RUGBYR,Rugby Run,-21.940469,147.880877,2025-10-24T13:35:00,0.0,0.0,134.886,20647.86,QLD,['Solar']
RYEPARK,Rye Park,-34.63317,148.95364,2025-10-24T13:35:00,3.9609,0.0,134.886,20647.86,NSW,['Wind']
SALTCRK,Salt Creek,-37.918698,142.796027,2025-10-24T13:35:00,0.97,0.0,134.886,20647.86,VIC,['Wind']
SAPHWF1,Sapphire,-29.710273,151.44558,2025-10-24T13:35:00,4.0696,0.0,134.886,20647.86,NSW,"['Wind', 'Solar']"
SEBSF,Sebastopol,-34.603287,147.554757,2025-10-24T13:35:00,0.0,0.0,134.886,20647.86,NSW,['Solar']
SHOALHAV,Shoalhaven,-34.733085,150.4667,2025-10-24T13:35:00,0.0,0.0,134.886,20647.86,NSW,"['Landfill Gas', 'Hydro', 'Solar', 'Solar']"
SITHE,Smithfield,-33.850023,150.950051,2025-10-24T13:35:00,0.0,0.0,134.886,20647.86,NSW,['Gas']
SMTHBES1,Smithfield,-33.849972,150.947448,2025-10-24T13:35:00,0.0,0.0,134.886,20647.86,NSW,['Gas']
SNOWTOWN,Snowtown,-33.691598,138.166022,2025-10-24T13:35:00,20.4306,0.0,134.886,20647.86,SA,"['Wind', 'Solar']"
SNUG,Snuggery,-37.664996,140.414686,2025-10-24T13:35:00,0.0,0.0,134.886,20647.86,SA,['Diesel']
SRSF,Susan River,-25.420275,152.742028,2025-10-24T13:35:00,0.0,0.0,134.886,20647.86,QLD,['Solar']
STANVAC,Port Stanvac,-35.110345,138.490872,2025-10-24T13:35:00,0.0,0.0,134.886,20647.86,SA,['Diesel']
STANWELL,Stanwell,-23.507501,150.317884,2025-10-24T13:35:00,1111.7647,91.0394,134.886,20647.86,QLD,['Black Coal']
STARFHILL,Starfish Hill,-35.578983,138.139653,2025-10-24T13:35:00,7.8977,0.0,134.886,20647.86,SA,['Wind']
STWF,Silverton,-31.86095,141.296349,2025-10-24T13:35:00,17.2982,0.0,134.886,20647.86,NSW,['Wind']
SUNRSF1,Sunraysia,-34.821489,143.50916,2025-10-24T13:35:00,0.0,0.0,134.886,20647.86,NSW,['Solar']
TALLAWAR,Tallawarra,-34.523089,150.808566,2025-10-24T13:35:00,0.0,0.0,134.886,20647.86,NSW,['Gas']
TARALGA,Taralga,-34.425387,149.859603,2025-10-24T13:35:00,0.0,0.0,134.886,20647.86,NSW,['Wind']
TARONG,Tarong,-26.774397,151.917838,2025-10-24T13:35:00,914.0,69.2821,134.886,20647.86,QLD,['Black Coal']
TARRALEA,Tarraleah,-42.301736,146.456661,2025-10-24T13:35:00,27.9,0.0,134.886,20647.86,TAS,['Hydro']
TB2SF,Tailem Bend 2,-35.28,139.49,2025-10-24T13:35:00,0.0,0.0,134.886,20647.86,SA,['Solar']
TIB,Torrens Island,-34.805831,138.524192,2025-10-24T13:35:00,0.32,0.0,134.886,20647.86,SA,"['Gas/Diesel', 'Gas']"
TORRIS,Torrens Island,-34.804559,138.522229,2025-10-24T13:35:00,380.0,18.1857,134.886,20647.86,SA,"['Gas/Diesel', 'Gas']"
TREVALLN,Trevallyn,-41.422302,147.112025,2025-10-24T13:35:00,94.6996,0.0,134.886,20647.86,TAS,['Hydro']
TUNGATIN,Tungatinah,-42.296396,146.455881,2025-10-24T13:35:00,96.35,0.0,134.886,20647.86,TAS,['Hydro']
TVCCPS,Tamar Valley,-41.139268,146.906185,2025-10-24T13:35:00,0.0,0.0,134.886,20647.86,TAS,['Gas']
URANQ,Uranquinty,-35.180226,147.21566,2025-10-24T13:35:00,149.4133,7.0318,134.886,20647.86,NSW,['Gas']
WAGGNSF,Wagga North,-35.069081,147.438227,2025-10-24T13:35:00,0.0,0.0,134.886,20647.86,NSW,['Solar']
WANDSF,Wandoan,-26.263564,149.772243,2025-10-24T13:35:00,0.0,0.0,134.886,20647.86,QLD,"['Solar', 'Solar']"
WARWSF,Warwick,-28.18321,152.066792,2025-10-24T13:35:00,0.0,0.0,134.886,20647.86,QLD,['Solar']
WATERLWF,Waterloo,-33.991095,138.915723,2025-10-24T13:35:00,14.4,0.0,134.886,20647.86,SA,"['Wind', 'Solar']"
WAUBRAWF,Waubra,-37.357979,143.5926,2025-10-24T13:35:00,0.0,0.0,134.886,20647.86,VIC,['Wind']
WELLSF1,Wellington,-32.5207,148.9675,2025-10-24T13:35:00,0.0,0.0,134.886,20647.86,NSW,['Solar']
WGWF,Willogoleche,-33.393569,138.84821,2025-10-24T13:35:00,1.4,0.0,134.886,20647.86,SA,['Wind']
WHITSF,Whitsunday,-20.537259,147.80475,2025-10-24T13:35:00,0.0,0.0,134.886,20647.86,QLD,['Solar']
WINTSF1,Winton,-36.499695,146.114554,2025-10-24T13:35:00,0.0,0.0,134.886,20647.86,VIC,"['Solar', 'Solar']"
WIVENHOE,Wivenhoe,-27.372224,152.632362,2025-10-24T13:35:00,0.0,0.0,134.886,20647.86,QLD,['Hydro']
WKIEWA,West Kiewa,-36.759674,147.186082,2025-10-24T13:35:00,40.1,0.0,134.886,20647.86,VIC,['Hydro']
WOOLGSF,Woolooga,-26.084522,152.441226,2025-10-24T13:35:00,0.0,0.0,134.886,20647.86,QLD,['Solar']
WOOLNTH1,Woolnorth,-40.736375,144.694821,2025-10-24T13:35:00,82.32,0.0,134.886,20647.86,TAS,['Wind']
WPWF,Wattle Point,-35.11541,137.718672,2025-10-24T13:35:00,17.31,0.0,134.886,20647.86,SA,['Wind']
WRWF1,White Rock Wind Farm,-29.7718,151.5755,2025-10-24T13:35:00,1.8189,0.0,134.886,20647.86,NSW,['Wind']
WSTWYSF,West Wyalong,-33.795635,147.314545,2025-10-24T13:35:00,0.0,0.0,134.886,20647.86,NSW,['Solar']
WUNUSF,Wunghnu,-36.164387,145.403731,2025-10-24T13:35:00,0.0,0.0,134.886,20647.86,VIC,['Solar']
WYASF,Wyalong,-33.804939,147.295155,2025-10-24T13:35:00,0.0,0.0,134.886,20647.86,NSW,['Solar']
YABULU,Townsville,-19.200374,146.618265,2025-10-24T13:35:00,0.0,0.0,134.886,20647.86,QLD,"['Gas', 'Coal Seam Methane', 'Solar', 'Solar']"
YARANSF,Yarranlea,-27.708939,151.532696,2025-10-24T13:35:00,0.0,0.0,134.886,20647.86,QLD,['Solar']
YSWF,Yaloak South,-37.716474,144.241947,2025-10-24T13:35:00,0.0,0.0,134.886,20647.86,VIC,['Wind']
0TARONGBESS,Tarong,-26.780051,151.912068,2025-10-24T13:40:00,0.0,0.0,155.58,20743.93,QLD,['Black Coal']
AGLHAL,Hallett,-33.34931,138.752633,2025-10-24T13:40:00,0.0,0.0,155.58,20743.93,SA,"['Wind', 'Gas/Diesel', 'Gas']"
AGLSOM,Somerton,-37.630949,144.953098,2025-10-24T13:40:00,60.6,5.7357,155.58,20743.93,VIC,['Gas']
ANGASTON,Angaston,-34.503948,139.024296,2025-10-24T13:40:00,0.0,0.0,155.58,20743.93,SA,"['Liquid Fuel', 'Diesel']"
AVLSF,Avonlie,-34.919115,146.60954,2025-10-24T13:40:00,0.0,0.0,155.58,20743.93,NSW,['Solar']
B2PS,Braemar 2,-27.109873,150.907653,2025-10-24T13:40:00,111.355,10.2967,155.58,20743.93,QLD,['Coal Seam Methane']
BANGOWF,Bango,-34.767208,148.921499,2025-10-24T13:40:00,0.0,0.0,155.58,20743.93,NSW,['Wind']
BARCALDN,Barcaldine,-23.552171,145.314851,2025-10-24T13:40:00,0.0,0.0,155.58,20743.93,QLD,"['Gas', 'Solar']"
BARRON,Barron Gorge,-16.85077,145.647049,2025-10-24T13:40:00,29.2,0.0,155.58,20743.93,QLD,['Hydro']
BASTYAN,Bastyan,-41.736231,145.531589,2025-10-24T13:40:00,0.0,0.0,155.58,20743.93,TAS,['Hydro']
BAYSW,Bayswater,-32.393502,150.953963,2025-10-24T13:40:00,1345.7725,97.6801,155.58,20743.93,NSW,['Black Coal']
BERYLSF,Beryl,-32.347501,149.460738,2025-10-24T13:40:00,0.0,0.0,155.58,20743.93,NSW,['Solar']
BHILLGT,Broken Hill,-31.986313,141.42062,2025-10-24T13:40:00,0.0,0.0,155.58,20743.93,NSW,"['Solar', 'Diesel']"
BHWF,Bald Hills,-38.758189,145.956062,2025-10-24T13:40:00,12.445,0.0,155.58,20743.93,VIC,['Wind']
BNGSF1,Bungala One,-32.423316,137.841798,2025-10-24T13:40:00,0.0,0.0,155.58,20743.93,SA,['Solar']
BNGSF2,Bungala Two,-32.406993,137.840933,2025-10-24T13:40:00,0.0,0.0,155.58,20743.93,SA,['Solar']
BOCOROCK,Boco Rock,-36.574527,149.124863,2025-10-24T13:40:00,2.44,0.0,155.58,20743.93,NSW,['Wind']
BODWF,Bodangora,-32.407128,149.04133,2025-10-24T13:40:00,5.4082,0.0,155.58,20743.93,NSW,['Wind']
BOLIVAR,Bolivar,-34.495482,138.387641,2025-10-24T13:40:00,0.06,0.0,155.58,20743.93,SA,['Gas']
BOLIVPS,Bolivar,-34.7772,138.5826,2025-10-24T13:40:00,31.8,2.1114,155.58,20743.93,SA,['Gas']
BOMENSF,Bomen,-35.0486,147.4439,2025-10-24T13:40:00,0.0,0.0,155.58,20743.93,NSW,['Solar']
BRAEMARA,Braemar,-27.111669,150.907647,2025-10-24T13:40:00,0.0,3.1653,155.58,20743.93,QLD,['Coal Seam Methane']
BROKENH,Broken Hill,-31.988905,141.391547,2025-10-24T13:40:00,0.0,0.0,155.58,20743.93,NSW,"['Solar', 'Diesel']"
BRYB1WF1,Berrybank,-37.980741,143.472217,2025-10-24T13:40:00,4.0345,0.0,155.58,20743.93,VIC,['Wind']
BWTR1,Broadwater,-29.016483,153.445756,2025-10-24T13:40:00,0.0,0.0,155.58,20743.93,NSW,"['Bagasse', 'Wood']"
CALL_B,Callide B,-24.333169,150.626322,2025-10-24T13:40:00,680.9,54.0592,155.58,20743.93,QLD,['Black Coal']
CANUNDA1,Canunda,-37.698303,140.383633,2025-10-24T13:40:00,4.5053,0.0,155.58,20743.93,SA,['Wind']
CAPBES,Capital,-35.339434,149.216065,2025-10-24T13:40:00,144.08,0.0,155.58,20743.93,NSW,"['Solar', 'Wind', 'Solar', 'Solar']"
CAPTL_WF,Capital,-35.123534,149.500249,2025-10-24T13:40:00,0.0,0.0,155.58,20743.93,NSW,"['Solar', 'Wind', 'Solar', 'Solar']"
CATHROCK,Cathedral Rocks,-34.848741,135.592649,2025-10-24T13:40:00,15.8,0.0,155.58,20743.93,SA,['Wind']
CETHANA,Cethana,-41.479852,146.134472,2025-10-24T13:40:00,52.3801,0.0,155.58,20743.93,TAS,['Hydro']
CHBESS,Chinchilla,-26.918551,150.745399,2025-10-24T13:40:00,150.5584,0.0,155.58,20743.93,QLD,['Battery']
CHILDSF,Childers,-25.295027,152.403674,2025-10-24T13:40:00,0.0,0.0,155.58,20743.93,QLD,['Solar']
CLARESF,Clare,-19.83977,147.21055,2025-10-24T13:40:00,0.0,0.0,155.58,20743.93,QLD,"['Solar', 'Solar']"
CLEMGPWF,Clements Gap,-33.489773,138.111695,2025-10-24T13:40:00,9.2205,0.0,155.58,20743.93,SA,['Wind']
CLERMSF,Clermont,-22.839406,147.546031,2025-10-24T13:40:00,0.0,0.0,155.58,20743.93,QLD,['Solar']
CLOVER,Clover,-36.78515,147.219517,2025-10-24T13:40:00,0.0,0.0,155.58,20743.93,VIC,['Hydro']
CLRKCWF,Clarke Creek,-22.850446,149.453252,2025-10-24T13:40:00,268.0597,0.0,155.58,20743.93,QLD,"['Wind', 'Wind']"
CLUNY,Cluny,-42.506229,146.681123,2025-10-24T13:40:00,17.9689,0.0,155.58,20743.93,TAS,['Hydro']
COLONGRA,Colongra,-33.208781,151.54354,2025-10-24T13:40:00,0.0,0.0,155.58,20743.93,NSW,['Gas']
COLUMSF,Columboola,-26.636088,150.28221,2025-10-24T13:40:00,0.0,0.0,155.58,20743.93,QLD,['Solar']
