powerStation,state,postcode,MWCapacity,fuelSource,year,lat,lng
"Laura Johnson Home, Townview",QLD,4825.0,0.2265,Solar,2025.0,-20.7342326,139.5034862
Leppington,NSW,2179.0,0.732,Solar,2025.0,-33.9773022,150.7834354
Quakers Hillside Care Community,NSW,2763.0,0.1996,Solar,2025.0,-33.719511,150.891607
Rest Nominees,VIC,3008.0,0.1188,Solar,2025.0,-36.9847807,143.3906074
Retail First Mt Ommaney,QLD,4074.0,1.0004,Solar,2025.0,-27.5452429,152.9319813
Woolworths HCFDC Heathwood,QLD,4110.0,1.6721,Solar,2025.0,-27.6348312,152.9917087
Woolworths Kings Meadow 7210,TAS,7249.0,0.2926,Solar,2025.0,-41.9609817,147.6479099
CLAYTON CHURCH HOMES INC,SA,5113.0,0.1965,Solar,2025.0,-30.0002315,136.2091547
Dalwood Children's Home,NSW,2092.0,0.2465,Solar,2025.0,-32.6274801,151.4200826
Haighs Proprietary Limited,SA,5106.0,0.6265,Solar,2025.0,-30.0002315,136.2091547
Lindt & Sprungli (Australia) Pty Ltd,NSW,2765.0,1.0179,Solar,2025.0,-31.2532183,146.921099
Midfield Trading Solar W SGU,SA,5010.0,0.6443,Solar,2025.0,-30.0002315,136.2091547
Wilandra Farms Clydebank,VIC,3851.0,0.155,Solar,2025.0,-38.0413887,147.1644309
Balickera WPS,NSW,2324.0,3.1158,Solar,2025.0,-32.660033,151.7971305
The Creeks Pipeline Company Ltd,SA,5259.0,2.808,Solar,2025.0,-35.2964192,139.0414808
Lai Industries,SA,5010.0,0.5445,Solar,2025.0,-30.0002315,136.2091547
CLAYTON CHURCH HOMES INC,SA,5082.0,0.198,Solar,2025.0,-30.0002315,136.2091547
Kerang Solar Plant,VIC,3579.0,37.2874,Solar,2025.0,-35.7350156,143.9202005
Red Valley Farms,QLD,4871.0,0.3801,Solar,2025.0,-15.8501908,144.8558809
Region Group Warnbro Central,WA,6169.0,0.5736,Solar,2025.0,-32.3352786,115.759399
Southern Steel,VIC,3175.0,0.2,Solar,2025.0,-36.9847807,143.3906074
Southern Steel,SA,5095.0,0.2498,Solar,2025.0,-35.1167257,138.4985418
CLAYTON CHURCH HOMES INC,SA,5072.0,0.2001,Solar,2025.0,-30.0002315,136.2091547
AU186 Oakdale West 5B,NSW,2178.0,0.15,Solar,2025.0,-34.0799357,150.5085739
Carosue,WA,6440.0,8.4637,Solar,2025.0,-30.1535719,122.3509579
Linfox Regency Park,SA,5010.0,0.7002,Solar,2025.0,-34.8556017,138.574467
PWR Hybrid Cataby,WA,6507.0,9.558,Solar,2025.0,-30.7358429,115.5402388
Blacktown Warehouse 1,NSW,2148.0,0.1995,Solar,2025.0,-33.7660982,150.9126927
Blacktown Warehouse 2,NSW,2148.0,0.1995,Solar,2025.0,-33.7660982,150.9126927
HCS,QLD,4014.0,0.4379,Solar,2025.0,-22.575197,144.0847926
Intertek Townsville,QLD,4818.0,0.1815,Solar,2025.0,-19.2508005,146.7366226
ISLHD,NSW,2516.0,0.2805,Solar,2025.0,-34.4897544,150.8891201
Region Group Treendale,WA,6233.0,0.3403,Solar,2025.0,-27.6728168,121.6283098
Woolworths DC Moorebank RDC 7950,NSW,2170.0,2.02,Solar,2025.0,-33.9343989,150.9347027
Bunnings Padstow,NSW,2211.0,0.2799,Solar,2025.0,-33.942003,151.035989
Five Star Seafoods,SA,5291.0,0.1889,Solar,2025.0,-38.0521157,140.7014793
Morgan Sawmill,SA,5491.0,0.1985,Solar,2025.0,-33.2022303,138.5729349
Northpoint Shopping Centre,QLD,4350.0,0.2984,Solar,2025.0,-27.5409914,151.9534338
Ormeau,QLD,4208.0,0.6588,Solar,2025.0,-27.7861892,153.2591207
Symbion,NSW,2178.0,1.7505,Solar,2025.0,-33.82294,150.92228
AFS Cadell Balranald,NSW,2715.0,4.8265,Solar,2025.0,-34.72095760000001,143.4989926
AU544 Interlink Estate,NSW,2759.0,0.5402,Solar,2025.0,-31.2532183,146.921099
BAE Williamtown,NSW,2318.0,0.4162,Solar,2025.0,-32.805961,151.837434
Bunnings Greenacre,NSW,2190.0,0.2001,Solar,2025.0,-33.90131909999999,151.0664275
Caloundra NMI 31173199012,QLD,4551.0,0.2275,Solar,2025.0,-26.8043999,153.1254643
HMC Capital Marsden Park,NSW,2765.0,0.24,Solar,2025.0,-33.7121004,150.841952
HMC Glenmore Park Shopping Centre,NSW,2745.0,0.5,Solar,2025.0,-33.7890704,150.668613
Lambert Estate Wines Pty Ltd,SA,5353.0,0.2232,Solar,2025.0,-34.5140317,139.0357497
Martin Brower Dandenong,VIC,3175.0,0.6251,Solar,2025.0,-38.0052446,145.2457329
Mt Annan Christian College,NSW,2567.0,0.2198,Solar,2025.0,-34.0487556,150.7760467
Scalabrini Chipping Norton,NSW,2170.0,0.335,Solar,2025.0,-33.9222641,150.9515568
Woolworths Darra 2695,QLD,4076.0,0.2499,Solar,2025.0,-27.5613337,152.9568256
Woolworths Ingham 2723,QLD,4850.0,0.2751,Solar,2025.0,-18.6510538,146.1568444
Woolworths Seaford 5646,SA,5169.0,0.2751,Solar,2025.0,-35.1870338,138.4801681
MNCLHD Coffs Harbour Health Campus,NSW,2450.0,1.3226,Solar,2025.0,-30.3179835,153.0940034
Tip Top Chullora,NSW,2190.0,2.0184,Solar,2025.0,-33.8939895,151.0449829
OZLEMFOODSWA,QLD,4207.0,0.4429,Solar,2025.0,-22.575197,144.0847926
Somerville Gardens Care Community,VIC,3912.0,0.2403,Solar,2025.0,-38.224962,145.1669677
Big W Mildura 560,VIC,3500.0,0.1996,Solar,2025.0,-34.2084827,142.1421312
Bunnings Maitland,NSW,2320.0,0.24,Solar,2025.0,-32.725282,151.54119
Clean Peak Energy,NSW,2580.0,0.288,Solar,2025.0,-33.8363771,151.2077989
Covenant Christian School,NSW,2085.0,0.1812,Solar,2025.0,-33.7141672,151.21495
EWH Food Services Kingsgrove,NSW,2208.0,0.3248,Solar,2025.0,-33.944212,151.0928129
Frasers Woolworths Liquor Warehouse,QLD,4207.0,0.5005,Solar,2025.0,-22.575197,144.0847926
"Scalabrini ""The Village"" Drummoyne",NSW,2047.0,0.235,Solar,2025.0,-33.8577411,151.1472001
Woolworths Katoomba 1787,NSW,2780.0,0.2751,Solar,2025.0,-33.7124469,150.3117701
Agile Energy,QLD,4208.0,0.2,Solar,2025.0,-22.575197,144.0847926
Aussie Pride Produce,VIC,3634.0,0.1476,Solar,2025.0,-36.2712003,145.432345
Campari,VIC,3026.0,0.6498,Solar,2025.0,-36.9847807,143.3906074
Chep Pallets,SA,5110.0,0.252,Solar,2025.0,-30.0002315,136.2091547
"Heidke St, Avoca",QLD,4670.0,0.1975,Solar,2025.0,-24.886416,152.3194594
HNELHD Tamworth,NSW,2340.0,1.0626,Solar,2025.0,-31.09003839999999,150.9293323
ISLHD Shoalhaven Hospital,NSW,2541.0,0.5,Solar,2025.0,-35.0810677,150.4892292
Kingspan Insulated Panels Pty Limited,NSW,2760.0,0.1601,Solar,2025.0,-33.7417031,150.7677957
Ornatas Tasmanian Lobster Hatchery,QLD,4816.0,0.1584,Solar,2025.0,-22.575197,144.0847926
Goyder South Wind Farm 1B,SA,5417.0,195.693,Wind,2025.0,-34.0537842,138.1995591
Agile Energy,NSW,2250.0,0.3478,Solar,2025.0,-33.8666739,151.2096645
ATCO Gas Australia Jandakot Microgrid,WA,6164.0,0.3006,Solar,2025.0,-32.1144409,115.8585662
Caloundra NMI 3117361486,QLD,4551.0,0.3476,Solar,2025.0,-26.8043999,153.1254643
City of Stirling (Administration Centre) – Solar w SGU,WA,6021.0,0.4702,Solar,2025.0,-31.89062779999999,115.816684
Concord Hospital,NSW,2138.0,0.3135,Solar,2025.0,-33.8371192,151.0941647
CQFMS,QLD,4740.0,0.3074,Solar,2025.0,-22.575197,144.0847926
Mirvac Switchyards Building 2,NSW,2144.0,0.1998,Solar,2025.0,-33.86255,151.207935
Seaford Central,SA,5169.0,0.4647,Solar,2025.0,-35.1892961,138.4791679
Stockland Rockhampton Shopping Centre,QLD,4701.0,2.6733,Solar,2025.0,-23.3544543,150.5224655
The Good Shepherd Home,QLD,4814.0,0.3136,Solar,2025.0,-19.3099296,146.7633243
Waverley Valley Care Community,VIC,3150.0,0.1499,Solar,2025.0,-37.869459,145.1589778
B&J Greenacre,NSW,2190.0,0.3997,Solar,2025.0,-33.9041635,151.072249
Bunnings Eastgardens,NSW,2036.0,0.3396,Solar,2025.0,-33.9491679,151.2247949
CH3059 Midwest Logistics Hub (INGH1),VIC,3029.0,0.9996,Solar,2025.0,-37.822881,144.7534421
"Macaulay Rd, Kensington",VIC,3031.0,0.1982,Solar,2025.0,-37.794511,144.9307387
MF Logistics Bvd,WA,6107.0,0.781,Solar,2025.0,-32.0093962,115.9786633
Mirvac Switchyards Building 6,NSW,2144.0,0.1998,Solar,2025.0,-33.86255,151.207935
Oxley Grove Care Community,QLD,4077.0,0.2775,Solar,2025.0,-27.5782642,152.983536
Stubbo,NSW,2852.0,520.3932,Solar,2025.0,-32.2970664,149.5332444
123 Sippy Downs,QLD,4556.0,0.1996,Solar,2025.0,-26.7139704,153.0617915
Agile Energy,QLD,4220.0,0.1524,Solar,2025.0,-22.575197,144.0847926
Baked Provisions Sydney,NSW,2170.0,0.2002,Solar,2025.0,-33.9365718,150.8856378
Chadstone Freshfood,VIC,3145.0,0.733,Solar,2025.0,-37.8810091,145.0959519
Mcdonald College,NSW,2137.0,0.2526,Solar,2025.0,-33.8584442,151.0866883
Moe Newborough,VIC,3825.0,0.1891,Solar,2025.0,-38.1774738,146.2594033
Nepean Hospital,NSW,2747.0,0.52,Solar,2025.0,-33.7592973,150.7137103
PFI Darra,QLD,4076.0,0.246,Solar,2025.0,-27.5757932,152.9560492
REMONDIS,NSW,2322.0,0.5511,Solar,2025.0,-31.2532183,146.921099
Story Fresh Produce,QLD,4358.0,0.2006,Solar,2025.0,-27.7134338,151.8781146
TIP TOP Carrara,QLD,4211.0,0.2205,Solar,2025.0,-28.0354868,153.3564211
Truganina,VIC,3029.0,0.293,Solar,2025.0,-37.8248334,144.7486991
UPS SCS Australia,NSW,2175.0,0.4002,Solar,2025.0,-31.2532183,146.921099
Petstock DC Avalon,VIC,3212.0,0.4004,Solar,2025.0,-38.0190235,144.4834572
REMONDIS,SA,5013.0,0.3969,Solar,2025.0,-30.0002315,136.2091547
BAE Systems Edinburgh Parks,SA,5111.0,0.1624,Solar,2025.0,-34.738053,138.6332525
Latrobe Leisure Morwell,VIC,3840.0,0.214,Solar,2025.0,-38.2332555,146.4051695
Acacia Ridge,QLD,4110.0,0.444,Solar,2025.0,-27.5873761,153.0270551
GPE_LYKA WELLNESS,VIC,3175.0,0.4994,Solar,2025.0,-36.9847807,143.3906074
Greenlink 7,VIC,3977.0,0.4196,Solar,2025.0,-36.9847807,143.3906074
IBIS Care,NSW,2223.0,0.3232,Solar,2025.0,-33.9819652,151.1104994
Agile Energy,NSW,2015.0,0.3608,Solar,2025.0,-33.8666739,151.2096645
Cairns Colonial Club,QLD,4870.0,0.2078,Solar,2025.0,-16.9115466,145.7480236
CALABRIA FAMILY WINES PTY LTD,NSW,2680.0,1.032,Solar,2025.0,-34.2769501,146.0286805
Pikes Wines Pty Ltd,SA,5453.0,0.1999,Solar,2025.0,-33.8873634,138.674942
Region Group Currambine,WA,6028.0,1.4803,Solar,2025.0,-31.7350917,115.7451643
Cubbie,QLD,4486.0,3.4395,Solar,2025.0,-22.575197,144.0847926
DHL Skyline,NSW,2171.0,0.9999,Solar,2025.0,-31.2532183,146.921099
Hendys Road Numurkah,VIC,3636.0,6.1623,Solar,2025.0,-36.0667307,145.4784347
Woolworths Golden Grove (The Stables) 5632,SA,5125.0,0.1998,Solar,2025.0,-34.7904698,138.6975102
Gregory Hills Hotel,NSW,2557.0,0.2,Solar,2025.0,-34.0225391,150.7655018
Moyhall,SA,5271.0,8.2029,Solar,2025.0,-37.0326147,140.6661117
AU371,QLD,4178.0,0.2912,Solar,2025.0,-22.575197,144.0847926
Kerarbury Station Almond Orchard,NSW,2706.0,6.0037,Solar,2025.0,-34.5682529,145.9987084
Steel Building Systems,SA,5113.0,0.2,Solar,2025.0,-30.0002315,136.2091547
Temperzone,NSW,2148.0,0.3595,Solar,2025.0,-32.9126676,151.7325452
Cowboys HQ,QLD,4810.0,0.264,Solar,2025.0,-22.575197,144.0847926
DUX MANUFACTURING LIMITED,NSW,2577.0,0.3995,Solar,2025.0,-31.2532183,146.921099
GPT Highpoint DJ,VIC,3032.0,0.4698,Solar,2025.0,-37.77376539999999,144.8896643
Mercy Place Cairns,QLD,4870.0,0.2789,Solar,2025.0,-16.929982,145.7492566
Mirani Water Recycling Facility,QLD,4754.0,0.1703,Solar,2025.0,-21.1586195,148.8623419
OPAL Bankstown Terrace Care Community,NSW,2200.0,0.2387,Solar,2025.0,-33.9329353,151.02629
OPAL Berkeley Care Community,NSW,2261.0,0.1687,Solar,2025.0,-34.476942,150.838983
UCS Pakenham,VIC,3810.0,0.1768,Solar,2025.0,-38.0947162,145.470796
Armadale Shopping Centre 576kW,WA,6112.0,0.576,Solar,2025.0,-32.1515645,116.0140386
Armadale Shopping Centre 700kW,WA,6112.0,0.704,Solar,2025.0,-32.1515645,116.0140386
AU876 Rosehill Industrial Estate,NSW,2142.0,0.764,Solar,2025.0,-33.828907,151.0292358
Mayfield Aged Care,NSW,2304.0,0.1923,Solar,2025.0,-32.8950287,151.7406396
Westrac Tomago,NSW,2322.0,1.6632,Solar,2025.0,-32.8235341,151.7517645
Wollar Solar Farm,NSW,2850.0,346.248,Solar,2025.0,-32.407631,149.9407365
NEUMANN STEEL 1,QLD,4223.0,1.5172,Solar,2025.0,-28.1480302,153.4690662
St Gregory's College Hall,NSW,2557.0,0.1993,Solar,2025.0,-34.0396755,150.7871124
St Marys Sewage Treatment,NSW,2760.0,1.7,Sewage Gas and Biomass-Based Components of Sewage,2025.0,-33.769979,150.7734575
Wentworthville Leagues Club Ltd,NSW,2145.0,0.23,Solar,2025.0,-33.8072579,150.9692876
Wentworthville Leagues Club Ltd System 2,NSW,2145.0,0.23,Solar,2025.0,-33.8072579,150.9692876
Westpork (Moora),WA,6507.0,0.63,Agricultural Waste,2025.0,-30.4974591,115.8798905
Across The Waves Sports Club Bundaberg,QLD,4670.0,0.4499,Solar,2025.0,-24.890253,152.3469848
HomeCo Toowoomba,QLD,4350.0,0.14,Solar,2025.0,-27.5979538,151.9504709
HomeCo Upper Coomera,QLD,4209.0,0.23,Solar,2025.0,-27.8508866,153.2985409
PLASTIC SOLUTIONS,VIC,3179.0,0.3586,Solar,2025.0,-36.9847807,143.3906074
Clarke Creek Wind Farm,QLD,4705.0,450.0,Wind,2025.0,-22.8504461,149.4532524
Big Dog Pet Foods,QLD,4504.0,0.6618,Solar,2025.0,-27.1955182,152.9994427
Doomadgee Solar Farm Stage 2,QLD,4830.0,0.304,Solar,2025.0,-17.9399667,138.8292283
MOKOAN SOLAR FARM,VIC,3673.0,57.803,Solar,2025.0,-36.4875195,146.1226338
Plainland,QLD,4341.0,0.4279,Solar,2025.0,-27.5679729,152.4220619
Homeco Tingalpa,QLD,4173.0,0.204,Solar,2025.0,-27.4772349,153.1397085
Palmerston Golf & Country Club,NT,830.0,0.1998,Solar,2025.0,-12.4803879,130.9758522
Tip Top Dry Creek,SA,5094.0,0.9176,Solar,2025.0,-34.840884,138.5914251
Woolworths Kingston 7003,TAS,7050.0,0.3375,Solar,2025.0,-42.9757956,147.3078991
Americold Hemmant 2,QLD,4174.0,0.3107,Solar,2025.0,-27.4445601,153.1170123
Brisbane Lions,QLD,4300.0,0.7987,Solar,2025.0,-22.575197,144.0847926
Cairns Aquarium,QLD,4870.0,0.4001,Solar,2025.0,-16.9184171,145.7738313
Clean Peak Energy,NSW,2830.0,0.3704,Solar,2025.0,-33.8363771,151.2077989
CSIRO,ACT,2620.0,1.2689,Solar,2025.0,-35.2770618,149.1447532
HomeCo Keysborough,VIC,3173.0,0.1518,Solar,2025.0,-37.99228340000001,145.1467055
STM Smeaton Grange – Solar w SGU – NSW,NSW,2567.0,0.2328,Solar,2025.0,-34.0390126,150.756853
The Big Banana Coffs Harbour,NSW,2450.0,0.1269,Solar,2025.0,-30.2748938,153.1337285
Uniting Farmborough,NSW,2526.0,0.1499,Solar,2025.0,-34.4563713,150.8296356
Synnex Australia,NSW,2141.0,0.4735,Solar,2025.0,-31.2532183,146.921099
Associated Grains Dalby,QLD,4405.0,0.3483,Solar,2025.0,-27.1836391,151.2309802
Clean Peak Energy,NSW,2731.0,7.5275,Solar,2025.0,-33.8363771,151.2077989
Kootingal Solar Farm,NSW,2352.0,6.048,Solar,2025.0,-31.057358,151.0541094
IBIS,QLD,4876.0,0.151,Solar,2025.0,-22.575197,144.0847926
Puopolo Smallgoods,VIC,3026.0,0.3089,Solar,2025.0,-37.8252276,144.7866402
Alsco Salisbury,QLD,4107.0,0.3001,Solar,2025.0,-27.5480816,153.0265229
Bunnings Penrith,NSW,2750.0,0.37,Solar,2025.0,-33.7439249,150.6899808
Cherry Lane,VIC,3026.0,0.4196,Solar,2025.0,-37.8372157,144.7964256
Coolaroo,VIC,3048.0,0.7004,Solar,2025.0,-37.6612312,144.9370304
"CVAS, Clarenza",NSW,2460.0,0.1936,Solar,2025.0,-29.717931,152.9659068
DMK,WA,6166.0,0.1956,Solar,2025.0,-17.9520097,122.2434092
Macathur Square,NSW,2560.0,4.5417,Solar,2025.0,-34.0748527,150.7979477
Powerhouse Museum,NSW,2154.0,0.8012,Solar,2025.0,-33.878518,151.1995418
Region Group Kwinana 1,WA,6167.0,1.1908,Solar,2025.0,-32.2320792,115.7787256
Riverwood CCP,NSW,2210.0,0.1255,Solar,2025.0,-33.94538,151.0534022
Sydney City Toyota Waterloo,NSW,2017.0,0.4541,Solar,2025.0,-33.8998657,151.2108116
Timberjack 10 International Square,VIC,3043.0,0.2357,Solar,2025.0,-37.6950384,144.8696538
Timberjack 11 International Square,VIC,3043.0,0.1732,Solar,2025.0,-37.6950519,144.8706294
Timberjack Bliss Court Derrimut,VIC,3026.0,0.6201,Solar,2025.0,-37.8022288,144.7811265
Uppal Produce,VIC,3616.0,0.1496,Solar,2025.0,-36.4459892,145.2917087
Koorelah Farms,QLD,4805.0,0.4061,Solar,2025.0,-19.9871737,148.2173483
Woolworths Norwest Circa 1422,NSW,2153.0,0.3001,Solar,2025.0,-33.7316522,150.9665906
Ashburton Aboriginal Corporation,WA,6751.0,0.7268,Solar,2025.0,-20.4088832,118.5988562
Bunnings Nunawading,VIC,3131.0,0.26,Solar,2025.0,-37.8192782,145.1668845
Eastern Creek,NSW,2766.0,4.268,Landfill Gas,2025.0,-33.8102184,150.85064
Gunnedah 2A Solar Farm,NSW,2380.0,6.048,Solar,2025.0,-30.97943189999999,150.2565037
Hemmant 1+3 Lineage Logistics,QLD,4174.0,1.518,Solar,2025.0,-27.4455473,153.1258815
Raymond Terrace,NSW,2324.0,0.2224,Solar,2025.0,-32.7573408,151.748173
Scalabrini Griffith,NSW,2680.0,0.2195,Solar,2025.0,-34.3007412,146.0772835
Wambo Wind Farm Stage 1,QLD,4410.0,252.0,Wind,2025.0,-26.6361785,151.2697887
Woolworths Merimbula 1250,NSW,2548.0,0.3656,Solar,2025.0,-36.8880702,149.9062981
SH LEASEHOLD PTY LTD,SA,5096.0,0.198,Solar,2025.0,-30.0002315,136.2091547
GPE_DB Santasalo,NSW,2516.0,0.5323,Solar,2025.0,-31.2532183,146.921099
Kwinana WTE,WA,6167.0,42.0,Biomass-Based Components of Municipal Solid Waste,2025.0,-32.2320792,115.7787256
Murrumbidgee,NSW,2716.0,7.125,Solar,2025.0,-34.6513496,145.7578403
PCCS,NSW,2486.0,0.1795,Solar,2025.0,-31.2532183,146.921099
Region Group Kwinana 2,WA,6167.0,1.1899,Solar,2025.0,-32.2320792,115.7787256
Bunnings Mentone,VIC,3194.0,0.1802,Solar,2025.0,-37.976882,145.069535
Equinex SY9,NSW,2142.0,0.4904,Solar,2025.0,-31.2532183,146.921099
HomeCo Braybrook,VIC,3019.0,0.14,Solar,2025.0,-37.7781337,144.8509028
HomeCo Bundall,QLD,4217.0,0.33,Solar,2025.0,-28.0053912,153.412885
Bunnings Lawnton,QLD,4501.0,0.1599,Solar,2025.0,-27.288078,152.9853359
Omya Bajool,QLD,4699.0,0.546,Solar,2025.0,-23.8102576,150.6475451
Bunnings Alexandria,NSW,2015.0,0.456,Solar,2025.0,-33.9057744,151.1936904
"Chisholm Rd, Auburn",NSW,2144.0,0.2069,Solar,2025.0,-33.8637456,151.0185357
Hillwood Berries,QLD,4670.0,0.2679,Solar,2025.0,-24.745633,152.158959
Bunnings Hoppers Crossing,VIC,3029.0,0.1802,Solar,2025.0,-37.875053,144.7132612
Energy Bay,NSW,2179.0,0.4385,Solar,2025.0,-33.8658285,151.2122067
GPE SURYA ENTERPRISES GOLD COAST,VIC,3925.0,0.1989,Solar,2025.0,-27.9769248,153.380936
Greentech 7 Solar Farm & BESS,VIC,3380.0,8.5068,Solar,2025.0,-36.9847807,143.3906074
Minter Magic Packing Shed Iraak,VIC,3494.0,0.1998,Solar,2025.0,-34.4119394,142.3077203
Seventh,NSW,2147.0,0.1544,Solar,2025.0,-31.2532183,146.921099
Treeby Parklands Care Community,WA,6164.0,0.2296,Solar,2025.0,-32.1217002,115.8786468
Western Port Bay Care Community,VIC,3913.0,0.1997,Solar,2025.0,-38.263925,145.193554
Bunnings Ballarat,VIC,3350.0,0.1802,Solar,2025.0,-37.5916214,143.8076827
Goodman AU702 Axle West,NSW,2766.0,0.655,Solar,2025.0,-34.8763449,150.5928931
Pillow Talk Darra – Solar wSGU – Qld,QLD,4076.0,0.3998,Solar,2025.0,-27.5644875,152.9621083
SOC Osborne Park,WA,6017.0,0.2996,Solar,2025.0,-31.903217,115.8185354
Temora 1C Solar Farm,NSW,2666.0,6.1212,Solar,2025.0,-34.4468114,147.533896
Harvey Norman Maroochydore Homemaker,QLD,4558.0,0.4536,Solar,2025.0,-26.6604162,153.0839286
Spreyton,TAS,7310.0,0.1743,Solar,2025.0,-41.2175876,146.3450276
AU254 M7 BH,NSW,2766.0,0.4378,Solar,2025.0,-33.8378399,150.8562268
House Power North Maroochydore Homemaker,QLD,4558.0,0.203,Solar,2025.0,-26.4786425637165,152.9522215223456
House Power South Maroochydore Homemaker,QLD,4558.0,0.1873,Solar,2025.0,-26.59081200563836,152.8999991407861
Culcairn Solar Farm,NSW,2660.0,439.8689,Solar,2025.0,-35.7095923,146.9817606
Domayne Maroochydore Homemaker,QLD,4558.0,0.203,Solar,2025.0,-26.6602963,153.0837537
GRAC,VIC,3844.0,0.3045,Solar,2025.0,-36.9847807,143.3906074
Greenlink 6,VIC,3977.0,0.4385,Solar,2025.0,-36.9847807,143.3906074
HomeCo Hawthorn East,VIC,3123.0,0.2,Solar,2025.0,-37.8456763,145.0418097
Joyce Mayne Maroochydore Homemaker,QLD,4558.0,0.1873,Solar,2025.0,-26.6602963,153.0837537
Morgan Sawmill Dublin,SA,5501.0,0.7052,Solar,2025.0,-34.4756096,138.391561
Nhill Renewable Energy Facility,VIC,3418.0,6.512,Solar,2025.0,-36.33278,141.6503408
Woolworths Eagle Vale 1091,NSW,2558.0,0.3375,Solar,2025.0,-34.0386678,150.8131919
Greenacres Joint Venture,SA,5086.0,0.2449,Solar,2025.0,-34.8695296,138.6278607
Moorebank,NSW,2170.0,1.7308,Solar,2025.0,-33.9343989,150.9347027
Redmud Green Energy 197 Pty Ltd,NSW,2386.0,6.5185,Solar,2025.0,-31.2532183,146.921099
Stanhope Leisure Centre,NSW,2768.0,0.3504,Solar,2025.0,-33.7195019,150.9213557
UA Mornington,TAS,7018.0,0.2102,Solar,2025.0,-42.85833299999999,147.403889
Harvey Norman Warragul,VIC,3820.0,0.3364,Solar,2025.0,-38.1673098,145.9510755
Goodman AU079 Greystanes Laminex,NSW,2145.0,0.4,Solar,2025.0,-33.8126925,150.9215177
DW Coomera,QLD,4209.0,0.7086,Solar,2025.0,-27.846439,153.343953
Mackay Christian College Senior Campus,QLD,4740.0,0.2899,Solar,2025.0,-21.1424956,149.1821469
Team Medical Supplies,NSW,2147.0,0.2067,Solar,2025.0,-31.2532183,146.921099
Americold Hemmant 3,QLD,4174.0,0.5235,Solar,2025.0,-27.4445601,153.1170123
Brothers Sports Club,QLD,4670.0,0.292,Solar,2025.0,-24.89116,152.3189313
Dungog WTP,NSW,2420.0,0.3006,Solar,2025.0,-32.4087375,151.7419586
Wollongong WRRF,NSW,2505.0,0.2461,Solar,2025.0,-34.4846167,150.8866852
Canally Microgrid,NSW,2715.0,6.5668,Solar,2025.0,-34.734699,143.352402
Coffs Harbour Grange Care Community,NSW,2450.0,0.1885,Solar,2025.0,-30.3063396,153.0924204
Munno Para Foodland,SA,5114.0,1.1799,Solar,2025.0,-34.68780539999999,138.687965
Tronox,NSW,2715.0,10.7125,Solar,2025.0,-31.2532183,146.921099
Elements of Byron,NSW,2481.0,0.8366,Solar,2025.0,-28.6258964,153.5869699
FABCOT Chermside,QLD,4032.0,0.2539,Solar,2025.0,-27.3858322,153.0310009
Altona Inlet Pump Station,VIC,3018.0,0.2256,Solar,2025.0,-37.8645245,144.8309509
Bunnings Keysborough,VIC,3173.0,0.2002,Solar,2025.0,-37.9898832,145.1469757
Ignatius Park College,QLD,4814.0,0.2904,Solar,2025.0,-19.3001636,146.7589341
Ambassador Industrial Pty Ltd,VIC,3803.0,0.2569,Solar,2025.0,-38.0150051,145.2622939
Dexus Dulux Dandenong,VIC,3175.0,0.2262,Solar,2025.0,-37.9847811,145.2139907
Harbourside Townsville,QLD,4810.0,0.7794,Solar,2025.0,-19.2687693,146.8333644
KQF Newheath Dr,QLD,4214.0,0.5359,Solar,2025.0,-27.9459382,153.3427432
Liuzzi 25 Eton St,VIC,3072.0,0.275,Solar,2025.0,-37.5308071,143.8358074
Liuzzi 71 Gower St,VIC,3072.0,0.4,Solar,2025.0,-37.743696,145.0246844
Mercy Community,QLD,4014.0,0.8525,Solar,2025.0,-27.3643436,153.0946502
Norther Airfield,VIC,3045.0,11.2784,Solar,2025.0,-36.9847807,143.3906074
Rose Farms,WA,6220.0,0.1997,Solar,2025.0,-27.6728168,121.6283098
Suprima Bakeries Pty Ltd,NSW,2566.0,0.7513,Solar,2025.0,-34.0408771,150.8397467
East Rockingham Resource Recovery Facility,WA,,29.0,Biomass,2019.0,-32.2546773,115.7653973
Mangalore Renewable Energy Project,VIC,,5.0,Solar,2021.0,-36.8978497,145.1619235
Orange Community Renewable Energy Park,NSW,,5.0,Solar,2022.0,-33.24778149999999,149.0549392
Moorebank Logistics Park,NSW,,60.0,Solar,2022.0,-33.9507233,150.9231708
Wangaratta Solar Farm,VIC,,40.0,Solar,2023.0,-36.3266146,146.3699862
Kidston Pumped Hydro Storage Project,QLD,,250.0,Hydro,2023.0,-18.889097,144.138785
New England Solar Farm,NSW,,320.0,Solar,2023.0,-31.2532183,146.921099
Bellevue Gold Hybrid Power Station (Wind),WA,,24.0,Wind,2023.0,-31.9503843,115.8391976
Glenellen solar project,NSW,,200.0,Solar,2023.0,-35.9272732,146.9091901
Forest Glen Solar Farm,NSW,,90.0,Solar,2023.0,-33.5431875,151.0267589
Uungula Wind Farm,NSW,,414.0,Wind,2024.0,-32.4919581,149.0942087
Munna Creek Solar Farm,QLD,,150.0,Solar,2024.0,-27.4659968,153.0306249
St Ives Gold Solar Farm,WA,,77.0,Wind,2024.0,-31.383931,121.817241
Gunsynd Solar Farm,QLD,,94.0,Solar,2024.0,-28.4024326,150.3648798
Aldoga Solar Farm,QLD,,380.0,Solar,2024.0,-23.8413848,151.2551924
Arnotts Huntingwood Solar Project,NSW,,4.95,Solar,2024.0,-33.79690739999999,150.8735036
Quorn Park Solar Hybrid,NSW,,98.0,Solar,2024.0,-31.2532183,146.921099
Golden Plains Wind Farm,VIC,,574.0,Wind,2024.0,-37.9472059,143.7506694
Lotus Creek Wind Farm,QLD,,285.0,Wind,2024.0,-22.4651317,149.1650414
Goorambat Solar Farm,VIC,,250.0,Solar,2024.0,-37.8103098,144.9676801
Hay Solar Farm,NSW,,7.5,Solar,2024.0,-34.512799,144.8664339
Broadsound Solar Farm,QLD,,376.0,Solar,2024.0,-21.240253,149.1486825
Boulder Creek Wind Farm,QLD,,228.0,Wind,2024.0,-23.6767552,150.3513992
Horsham Solar Farm,VIC,,118.8,Solar,2024.0,-36.7217049,142.2491668
Carwarp Energy Park,VIC,,171.0,Solar,2024.0,-34.5417166,142.2110746
Goulburn River Solar Farm,NSW,,450.0,Solar,2024.0,-32.2847231,150.0712952
Wambo Wind Farm Stage 2,QLD,,254.0,Wind,2024.0,-26.6361785,151.2697887
Warradarge Wind Farm Stage 2,WA,,108.0,Wind,2024.0,-30.0578671,115.3296682
Bungama Solar Farm (stage 3),SA,,280.0,Solar,2025.0,-33.1965843,138.0682053
Fulham Solar Farm,VIC,,80.0,Solar,2025.0,-38.1212824,146.9731313
Cloudbreak Solar Farm,WA,,190.0,Solar,2025.0,-22.3270529,119.3968821
Port Latta Wind Farm,TAS,,25.0,Wind,2025.0,-40.8541918,145.3808967
Wandoan South Solar Farm (Stage 2),QLD,,240.0,Solar,2025.0,-26.2629642,149.772688
Lancaster Solar Farm,VIC,,106.0,Solar,2025.0,-36.2983221,145.1396899
Mulwala Solar Farm,NSW,,31.0,Solar,2025.0,-35.9864644,146.0043042
Barnawartha Solar Farm,VIC,,64.0,Solar,,-36.0959962,146.6965122
Barwon solar farm,VIC,,250.0,Solar,,-36.9847807,143.3906074
Boddington Giga Energy,WA,,400.0,Solar,,-32.8055466,116.4724334
Bulli Creek Solar project Stage 1,QLD,,775.0,Solar,,-28.0220901,150.8962921
Bullyard Solar Farm,QLD,,100.0,Solar,,-24.9509441,152.0610284
Bungaban Wind Farm,QLD,,1400.0,Wind,,-25.8843272,150.1855352
Byford Solar Project,WA,,30.0,Solar,,-32.221722,116.0073374
Campbells Forest Solar Farm,VIC,,205.0,Solar,,-36.6129509,144.1404184
Coppabella Wind Farm,NSW,,284.0,Wind,,-34.7397648,148.5073926
Derby Solar Farm & Battery,VIC,,95.0,Solar,,-36.9847807,143.3906074
Elaine Solar Farm,VIC,,125.0,Solar,,-37.7776253,144.0284933
Eurimbula Solar Farm,QLD,,696.0,Solar,,-24.1606594,151.7601202
Frasers Solar Farm,VIC,,77.0,Solar,,-38.0827672,146.5962113
Ganymirra Solar Power Station,QLD,,150.0,Solar,,-22.575197,144.0847926
Glanmire Solar Farm,NSW,,60.0,Solar,,-33.4183397,149.7058388
Goyder North Wind Farm Stage 1,SA,,300.0,Wind,,-33.6511494,139.1221414
Hopeland Solar Farm,QLD,,250.0,Solar,,-26.9277686,150.7111728
Junction Rivers Wind Farm,NSW,,585.0,Wind,,-31.2532183,146.921099
Kalbarri Microgrid Project,WA,,5.0,Solar,,-27.7112189,114.1661361
Kentbruck Green Power Hub,VIC,,600.0,Wind,,-38.15,141.28
Kiamal Solar Farm,VIC,,150.0,Solar,,-35.0181236,142.3029207
Kidston Stage 3 Wind Project,QLD,,258.0,Wind,,-18.889097,144.138785
Lake Wells high renewable energy fraction microgrid,WA,,4.5,Solar,,-27.184601,123.4477664
Lake Wells high renewable energy fraction microgrid,WA,,9.0,Wind,,-27.184601,123.4477664
Lakeland Wind Farm,QLD,,100.0,Wind,,-15.858871,144.857159
Majors Creek Solar Farm,QLD,,150.0,Solar,,-19.61177,146.9435763
Manilla Community Solar,NSW,,4.5,Solar,,-30.746533,150.7240407
Mount Hopeful Wind Farm,QLD,,350.0,Wind,,-23.7333333,150.5333333
Northern Midlands Solar Farm,TAS,,288.0,Solar,,-41.7743261,147.4229874
Palmer Wind Farm,SA,,288.0,Wind,,-34.8517377,139.1593299
Planet Ark Power,SA,,5.7,Solar,,-35.0088479,138.5748227
Port Augusta Energy Park Stage 2,SA,,300.0,Solar,,-32.5565655,137.8642145
Sandy Creek Solar Farm,NSW,,700.0,Solar,,-31.9155912,145.4584664
Sapphire Solar Farm,NSW,,200.0,Solar,,-31.2532183,146.921099
Silverleaf Solar Farm,NSW,,120.0,Solar,,-31.2532183,146.921099
Smoky Creek and Guthrie's Gap Solar Farm,QLD,,600.0,Solar,,-24.113871392095,150.5059587305891
Snowtown North Solar Farm,SA,,44.0,Solar,,-33.7809175,138.2149099
Spicers Creek Wind Farm,NSW,,700.0,Wind,,-32.3876753,149.1599339
Theodore Wind Farm,QLD,,1152.0,Wind,,-24.9474548,150.0755894
Thunderbolt Wind Farm stage 1,NSW,,230.0,Wind,,-30.7454926,151.2775848
Upper Calliope Solar Farm,QLD,,1300.0,Solar,,-24.0062017,151.2011287
Vales Point Solar Farm,NSW,,62.0,Solar,,-33.1437815,151.5373285
Valley of the Winds,NSW,,936.0,Wind,,-31.2532183,146.921099
Vast Solar Facility,SA,,30.0,Solar,,-32.3207707,137.6267813
Walgett Solar Farm,NSW,,25.0,Solar,,-30.0215209,148.1167617
Waroona Solar Fam,WA,,120.0,Solar,,-32.8429333,115.9214559
West Mokoan Solar Farm,VIC,,300.0,Solar,,-36.38,146.03
Winton North Solar Farm,VIC,,100.0,Solar,,-36.4739407,146.1354628
Woolsthorpe Wind Farm,VIC,,70.0,Wind,,-38.1600531,142.3765783
